Power Plant ID,Name,Fuel,Secondary Fuel,Generator Technology,Units,Capacity (MW),Commissioning Date,Owner,Operational Status,Location,Annual Generation (GWh),Year of Data,Cooling Technology,Cooling Source,Fuel Consumption (g/kWh),CO2 Annual Reported,CO2 Specific Emissions (tCO2/MWh),Efficiency,Latitude,Longitude,Other,Source,URL,Source 2,URL 2,Peak Load (MW),Load Factor,Capacity Factor,Availability,Grid Connection (kV),Grid Balancing Area,Address,Municipality,Postal Code,Country,Natural Language,Geolocation Source
1005621,BROKDORF,Nuclear,,PWR,,1480,1986,,,OSTERENDE,10505.87,2016,,,,,,,53.8506,9.345,,IAEA,https://www.iaea.org/PRIS/CountryStatistics/CountryStatisticsLandingPage.aspx,,,,,,,,,,,,Germany,,GEODB
1006001,PHILIPPSBURG-2,Nuclear,,PWR,,1468,1984,,,PHILIPPSBURG,10359.02,2016,,,,,,,49.25290112,8.436433839,,IAEA,https://www.iaea.org/PRIS/CountryStatistics/CountryStatisticsLandingPage.aspx,,,,,,,,,,,,Germany,,GEODB
1005659,EMSLAND,Nuclear,,PWR,,1406,1988,,,LINGEN (EMS),10285.64,2016,,,,,,,52.4716,7.3204,,IAEA,https://www.iaea.org/PRIS/CountryStatistics/CountryStatisticsLandingPage.aspx,,,,,,,,,,,,Germany,,GEODB
1005974,NECKARWESTHEIM-2,Nuclear,,PWR,,1400,1989,,,NECKARWESTHEIM,10205.1,2016,,,,,,,49.04078176,9.175874306,,IAEA,https://www.iaea.org/PRIS/CountryStatistics/CountryStatisticsLandingPage.aspx,,,,,,,,,,,,Germany,,GEODB
1006141,Westfalen,Coal,,Sub-critical Thermal,"2 units (284, 765)",1049,"1969, 2014",RWE Generation SE,Operational,Hamm-Uentrop,4904.639,2016,,,,,,0.433,51.6805,7.9696,,Open Power System Data,http://data.open-power-system-data.org/,ENTSOE (For Generation only),https://transparency.entsoe.eu/generation/r2/installedCapacityPerProductionUnit/show,,,,,,,,,,Germany,,GEODB
1005597,Biomasse-HKW,Biomass,,Sub-critical Thermal,,40,2003-2006,PN Biomasseheizkraftwerk Emlichheim GmbH & Co. KG,Operational,Emlichheim,,2016,,,,,,,,,,Open Power System Data,http://data.open-power-system-data.org/,,,,,,,,,,,,Germany,,
1006079,Biomass Generator #1,Biomass,,Sub-critical Thermal,,10.6,2014,BEKW Bioenergiekraftwerk Emsland GmbH & Co. KG,Operational,Emlichheim,,2016,,,,,,,,,,Open Power System Data,http://data.open-power-system-data.org/,,,,,,,,,,,,Germany,,
1005808,HKW Römerbrücke,Natural Gas,,CCGT,"2 units (75, 50)",125,1988-2005,Energie SaarLorLux AG,Operational,Saarbrücken,64.847,2016,,,,,,,,,,Open Power System Data,http://data.open-power-system-data.org/,ENTSOE (For Generation only),https://transparency.entsoe.eu/generation/r2/installedCapacityPerProductionUnit/show,,,,,,,,,,Germany,,
1005693,Gemeinschaftskraftwerk Weig,Natural Gas,,CCGT,,42,1992-2013,Moritz J. Weig GmbH & Co KG,Operational,Mayen,,2016,,,,,,,,,,Open Power System Data,http://data.open-power-system-data.org/,,,,,,,,,,,,Germany,,
1006103,Natural Gas Turbine #5,Natural Gas,,Sub-critical Thermal,,17.1,2014,Kronos Titan GmbH,Operational,Bremerhaven,,2016,,,,,,,,,,Open Power System Data,http://data.open-power-system-data.org/,,,,,,,,,,,,Germany,,
1005923,KWK-Anlage,Natural Gas,,CCGT,,14.8,1993-2002,CR3-Kaffeeveredelung M. Hermsen GmbH,Operational,Bremen,,2016,,,,,,,,,,Open Power System Data,http://data.open-power-system-data.org/,,,,,,,,,,,,Germany,,
1005787,HKW Freiberg,Natural Gas,,Sub-critical Thermal,,13.4,2013,Freiberger ErdNatural Gas GmbH,Operational,Freiberg,,2016,,,,,,,,,,Open Power System Data,http://data.open-power-system-data.org/,,,,,,,,,,,,Germany,,
1005970,Natural Gaskraftwerk #2,Natural Gas,,Sub-critical Thermal,,13.2,1975,DS Smith Paper Deutschland GmbH,Operational,Witzenhausen,,2016,,,,,,,,,,Open Power System Data,http://data.open-power-system-data.org/,,,,,,,,,,,,Germany,,
1006099,Biomass Generator #21,Natural Gas,,Sub-critical Thermal,,13.2,1990,Stadtwerke Kempen GmbH,Operational,Kempen,,2016,,,,,,0.4276,,,,Open Power System Data,http://data.open-power-system-data.org/,,,,,,,,,,,,Germany,,
1006102,Natural Gas Turbine #4,Natural Gas,,Sub-critical Thermal,,12.9,2014,Volkswagen Sachsen GmbH,Operational,Zwickau,,2016,,,,,,,,,,Open Power System Data,http://data.open-power-system-data.org/,,,,,,,,,,,,Germany,,
1005823,HKW-Mitte,Natural Gas,Oil,Sub-critical Thermal,,11.3,1980,Alte Hansestadt Lemgo,Operational,Lemgo,,2016,,,,,,,,,,Open Power System Data,http://data.open-power-system-data.org/,,,,,,,,,,,,Germany,,
1005892,Kraftwerk Raffinerie Heide,Oil,,Sub-critical Thermal,,44.5,1962,Raffinerie Heide GmbH,Operational,Hemminstedt,,2016,,,,,,,,,,Open Power System Data,http://data.open-power-system-data.org/,,,,,,,,,,,,Germany,,
1005753,Heizkraftwerk NMS,Other,,Sub-critical Thermal,,53.6,1982-2014,SWN Stadtwerke Neumünster GmbH,Operational,Neumünster,,2016,,,,,,,,,,Open Power System Data,http://data.open-power-system-data.org/,,,,,,,,,,,,Germany,,
1005646,EBS-Kraftwerk Witzenhausen,Other,Biomass,Sub-critical Thermal,,28,2009,B+T Energie GmbH,Operational,Witzenhausen,,2016,,,,,,0.75,,,,Open Power System Data,http://data.open-power-system-data.org/,,,,,,,,,,,,Germany,,
1006100,Unnamed #1,Other,,Sub-critical Thermal,,23.3,1964,Gunvor Raffinerie Ingolstadt GmbH,Operational,Kösching,,2016,,,,,,,,,,Open Power System Data,http://data.open-power-system-data.org/,,,,,,,,,,,,Germany,,
1005981,Nord 1,Waste,,Sub-critical Thermal,"2 units (18, 22)",40,1984-1992,SWM Services GmbH,Operational,Unterföhring,,2016,,,,,,,,,,Open Power System Data,http://data.open-power-system-data.org/,,,,,,,,,,,,Germany,,
1005849,ISAR-2,Nuclear,,PWR,,1485,1988,,,ESSENBACH,10381.22,2016,,,,,,,48.60491534,12.29359137,,IAEA,https://www.iaea.org/PRIS/CountryStatistics/CountryStatisticsLandingPage.aspx,,,,,,,,,,,,Germany,,GEODB
1005953,Moorburg B,Coal,,Sub-critical Thermal,,1600,2015,Vattenfall Europe Generation AG,Operational,Hamburg,4606.494,2016,,,,,,0.465,53.489,9.949,,Open Power System Data,http://data.open-power-system-data.org/,ENTSOE (For Generation only),https://transparency.entsoe.eu/generation/r2/installedCapacityPerProductionUnit/show,,,,,,,,,,Germany,,GEODB
1005982,Nord 2,Coal,Oil,Sub-critical Thermal,,332.7,1991,SWM Services GmbH,Operational,Unterföhring,510.096,2016,,,,,,,48.1805,11.6393,,Open Power System Data,http://data.open-power-system-data.org/,ENTSOE (For Generation only),https://transparency.entsoe.eu/generation/r2/installedCapacityPerProductionUnit/show,,,,,,,,,,Germany,,GEODB
1005594,BioEnergie Park Klarsee,Biomass,,Sub-critical Thermal,,17.8,2006,Geno Bioenergie Leasingfonds Erste GmbH & Co. KG,Operational,Krackow,,2016,,,,,,,53.3,14.25,,Open Power System Data,http://data.open-power-system-data.org/,,,,,,,,,,,,Germany,,CARMA
1005826,HKW3 UPM Schongau,Natural Gas,,Sub-critical Thermal,,65,2015,UPM GmbH,Operational,Schongau,,2016,,,,,,,48.16030317,10.11437416,,Open Power System Data,http://data.open-power-system-data.org/,,,,,,,,,,,,Germany,,CARMA
1005739,Heizkraftwerk Bomlitz,Natural Gas,,Sub-critical Thermal,,22.1,1912,Dow Wolff Cellulosics GmbH,Operational,Bomlitz,,2016,,,,,,,52.9,9.65,,Open Power System Data,http://data.open-power-system-data.org/,,,,,,,,,,,,Germany,,CARMA
1005601,Biomasseheizkraftwerk Wiesbaden,Waste,,Sub-critical Thermal,,10.5,2014,ESWE BioEnergie GmbH,Operational,Wiesbaden,,2016,,,,,,,50.0833333,8.25,,Open Power System Data,http://data.open-power-system-data.org/,,,,,,,,,,,,Germany,,CARMA
1006025,Rheinhafen-Dampfkraftwerk,Natural Gas,,CCGT,,353,1998,EnBW Energie Baden-Württemberg AG,Operational,Karlsruhe,172.334,2016,,,,,,0.57,49.012957,8.304002,,Open Power System Data,http://data.open-power-system-data.org/,ENTSOE (For Generation only),https://transparency.entsoe.eu/generation/r2/installedCapacityPerProductionUnit/show,,,,,,,,,,Germany,,WRI
1005979,Niederaußem,lignite coal,,Sub-critical Thermal,"7 units(294, 295, 297, 299, 648, 653, 944)",3430,1968-2002,RWE Power AG,Operational,Bergheim,23528.8,2016,,,,,,0.393,50.993012,6.668508,,Open Power System Data,http://data.open-power-system-data.org/,ENTSOE (For Generation only),https://transparency.entsoe.eu/generation/r2/installedCapacityPerProductionUnit/show,,,,,,,,,,Germany,,WRI
1005699,GKM,Coal,,Sub-critical Thermal,"4 units (255, 425, 435, 843)",1958,1982-2015,Grosskraftwerk Mannheim AG,Operational,Mannheim,,2016,,,,,,0.429,49.445158,8.489112,,Open Power System Data,http://data.open-power-system-data.org/,,,,,,,,,,,,Germany,,WRI
1005765,Heyden,Coal,,Sub-critical Thermal,,875,1987,E.ON Kraftwerke GmbH,Operational,Petershagen,3084.143,2016,,,,,,0.42,52.38279238,8.996004114,,Open Power System Data,http://data.open-power-system-data.org/,ENTSOE (For Generation only),https://transparency.entsoe.eu/generation/r2/installedCapacityPerProductionUnit/show,,,,,,,,,,Germany,,CARMA
1005832,Ibbenbüren,Coal,,Sub-critical Thermal,,794,1985,RWE Generation SE,Operational,Ibbenbüren,3540.277,2016,,,,,,,52.28881179,7.747906179,,Open Power System Data,http://data.open-power-system-data.org/,ENTSOE (For Generation only),https://transparency.entsoe.eu/generation/r2/installedCapacityPerProductionUnit/show,,,,,,,,,,Germany,,CARMA
1005928,KWM,Coal,,Sub-critical Thermal,,690,1979,Stadtwerke Hannover AG,Operational,Hohenhameln OT Mehrum,2857.679,2016,,,,,,,52.3150224,10.09141738,,Open Power System Data,http://data.open-power-system-data.org/,ENTSOE (For Generation only),https://transparency.entsoe.eu/generation/r2/installedCapacityPerProductionUnit/show,,,,,,,,,,Germany,,CARMA
1005866,KNG Kraftwerk Rostock,Coal,,Sub-critical Thermal,,514,1994,EnBW Energie Baden-Württemberg AG,Operational,Rostock,2787.371,2016,,,,,,0.432,54.14282177,12.13287489,,Open Power System Data,http://data.open-power-system-data.org/,ENTSOE (For Generation only),https://transparency.entsoe.eu/generation/r2/installedCapacityPerProductionUnit/show,,,,,,,,,,Germany,,CARMA
1005676,Farge,Coal,,Sub-critical Thermal,,350,1969,GDF SUEZ Energie Deutschland AG,Operational,Bremen,1715.125,2016,,,,,,,53.20206653,8.516153926,,Open Power System Data,http://data.open-power-system-data.org/,ENTSOE (For Generation only),https://transparency.entsoe.eu/generation/r2/installedCapacityPerProductionUnit/show,,,,,,,,,,Germany,,CARMA
1006042,Scholven,Coal,,Sub-critical Thermal,2x345,690,1968-1969,E.ON Kraftwerke GmbH,Operational,Gelsenkirchen,3454.37,2016,,,,,,,51.60236802,7.009894096,,Open Power System Data,http://data.open-power-system-data.org/,ENTSOE (For Generation only),https://transparency.entsoe.eu/generation/r2/installedCapacityPerProductionUnit/show,,,,,,,,,,Germany,,CARMA
1006041,Schkopau,lignite coal,,Sub-critical Thermal,2x450,900,1996,E.ON Kraftwerke GmbH,Operational,Schkopau,4170.691,2016,,,,,,0.4,51.39845463,11.9504201,,Open Power System Data,http://data.open-power-system-data.org/,ENTSOE (For Generation only),https://transparency.entsoe.eu/generation/r2/installedCapacityPerProductionUnit/show,,,,,,,,,,Germany,,CARMA
1005596,Biomasse-Heizkraftwerk Malchin,Biomass,,Sub-critical Thermal,,9.8,2003,envia THERM GmbH,Operational,Malchin,,2016,,,,,,,53.74186,12.78302,,Open Power System Data,http://data.open-power-system-data.org/,,,,,,,,,,,,Germany,,Open Power System Data
1005773,HKW Altenstadt,Biomass,,Sub-critical Thermal,,9.8,1999,Heizkraftwerk Altenstadt GmbH & Co. KG,Operational,Altenstadt,,2016,,,,,,,47.79714,10.85874,,Open Power System Data,http://data.open-power-system-data.org/,,,,,,,,,,,,Germany,,Open Power System Data
1005606,Blockheizkraftwerk 1,Biomass,,Sub-critical Thermal,,2,2005-2010,DS Smith Paper Deutschland GmbH,Operational,Aschaffenburg,,2016,,,,,,,49.988218,9.155761,,Open Power System Data,http://data.open-power-system-data.org/,,,,,,,,,,,,Germany,,Open Power System Data
1005916,KW Walsum,Coal,,Sub-critical Thermal,"2 units (370, 725)",1095,1988-2013,Steag GmbH,Operational,Duisburg,4128.955,2016,,,,,,0.427,51.52672,6.71868,,Open Power System Data,http://data.open-power-system-data.org/,ENTSOE (For Generation only),https://transparency.entsoe.eu/generation/r2/installedCapacityPerProductionUnit/show,,,,,,,,,,Germany,,Open Power System Data
1005747,Heizkraftwerk Heilbronn,Coal,,Sub-critical Thermal,,778,1985,EnBW Energie Baden-Württemberg AG,Operational,Heilbronn,3212.588,2016,,,,,,,49.177334,9.206318,,Open Power System Data,http://data.open-power-system-data.org/,ENTSOE (For Generation only),https://transparency.entsoe.eu/generation/r2/installedCapacityPerProductionUnit/show,,,,,,,,,,Germany,,Open Power System Data
1005737,Heizkraftwerk Altbach/Deizisau (Coal),Coal,,Sub-critical Thermal,"2 units (336, 433)",769,1985-1997,EnBW Energie Baden-Württemberg AG,Operational,Altbach,,2016,,,,,,0.44,48.717611,9.374917,,Open Power System Data,http://data.open-power-system-data.org/,,,,,,,,,,,,Germany,,Open Power System Data
1006143,Wilhelmshaven (Coal),Coal,,Sub-critical Thermal,,757,1976,E.ON Kraftwerke GmbH,Operational,Wilhelmshaven,3212.419,2016,,,,,,0.4,53.565819,8.146245,,Open Power System Data,http://data.open-power-system-data.org/,ENTSOE (For Generation only),https://transparency.entsoe.eu/generation/r2/installedCapacityPerProductionUnit/show,,,,,,,,,,Germany,,Open Power System Data
1005889,Kraftwerk N 230,Coal,,Sub-critical Thermal,,110,1971,Currenta GmbH & Co. OHG,Operational,Krefeld-Uerdingen,,2016,,,,,,,51.369811,6.6615,,Open Power System Data,http://data.open-power-system-data.org/,,,,,,,,,,,,Germany,,Open Power System Data
1005686,G-Kraftwerk,Coal,,Sub-critical Thermal,,103,1962,Currenta GmbH & Co. OHG,Operational,Leverkusen,,2016,,,,,,,51.368872,6.654106,,Open Power System Data,http://data.open-power-system-data.org/,,,,,,,,,,,,Germany,,Open Power System Data
1005792,HKW I,Coal,,Sub-critical Thermal,,95,1985,Stadtwerke Duisburg AG,Operational,Duisburg,,2016,,,,,,,51.429324,6.751984,,Open Power System Data,http://data.open-power-system-data.org/,,,,,,,,,,,,Germany,,Open Power System Data
1005950,Moabit (Coal),Coal,,Sub-critical Thermal,,89,1990,Vattenfall Europe Wärme Aktiengesellschaft,Operational,Berlin,,2016,,,,,,,52.53735111,13.34611416,,Open Power System Data,http://data.open-power-system-data.org/,,,,,,,,,,,,Germany,,Open Power System Data
1005781,HKW Elberfeld,Coal,,Sub-critical Thermal,,85,1989,WSW Energie & Wasser AG,Operational,Wuppertal,,2016,,,,,,,51.24835,7.11874,,Open Power System Data,http://data.open-power-system-data.org/,,,,,,,,,,,,Germany,,Open Power System Data
1005840,Industrie-Kraftwerk,Coal,,OCGT,,79,1975,Solvay Chemicals GmbH,Operational,Rheinberg,,2016,,,,,,,51.56489,6.57824,,Open Power System Data,http://data.open-power-system-data.org/,,,,,,,,,,,,Germany,,Open Power System Data
1005685,FWK Buer,Coal,,Sub-critical Thermal,,70,1985,E.ON Kraftwerke GmbH,Operational,Gelsenkirchen,,2016,,,,,,,51.59696,7.00452,,Open Power System Data,http://data.open-power-system-data.org/,,,,,,,,,,,,Germany,,Open Power System Data
1005804,HKW Nord,Coal,,Sub-critical Thermal,,61.5,2000,Volkswagen AG,Operational,Wolfsburg,,2016,,,,,,,52.43279,10.78611,,Open Power System Data,http://data.open-power-system-data.org/,,,,,,,,,,,,Germany,,Open Power System Data
1005883,Kraftwerk II,Coal,,Sub-critical Thermal,,60.4,1966,Evonik Degussa GmbH,Operational,Marl,,2016,,,,,,0.38,51.68037,7.09688,,Open Power System Data,http://data.open-power-system-data.org/,,,,,,,,,,,,Germany,,Open Power System Data
1005883,Kraftwerk I,Coal,,Sub-critical Thermal,"3 units(120, 60.4, 55.3)",235.8,1971-1983,Evonik Degussa GmbH,Operational,Marl,,2016,,,,,,,51.68037,7.09688,,Open Power System Data,http://data.open-power-system-data.org/,,,,,,,,,,,,Germany,,Open Power System Data
1005754,Heizkraftwerk Offenbach,Coal,,Sub-critical Thermal,,54,1990,Energieversorgung Offenbach AG,Operational,Offenbach,,2016,,,,,,,50.065155,8.768964,,Open Power System Data,http://data.open-power-system-data.org/,,,,,,,,,,,,Germany,,Open Power System Data
1005757,Heizkraftwerk Pforzheim GmbH (Coal),Coal,,Sub-critical Thermal,,26.9,1990,Heizkraftwerk Pforzheim GmbH,Operational,Pforzheim,,2016,,,,,,,48.88316,8.6653,,Open Power System Data,http://data.open-power-system-data.org/,,,,,,,,,,,,Germany,,Open Power System Data
1005885,Kraftwerk L 57,Coal,,Sub-critical Thermal,,26,1957,Currenta GmbH & Co. OHG,Operational,Krefeld-Uerdingen,,2016,,,,,,,51.369811,6.6615,,Open Power System Data,http://data.open-power-system-data.org/,,,,,,,,,,,,Germany,,Open Power System Data
1005740,Heizkraftwerk der Sappi Stockstadt GmbH,Coal,,Sub-critical Thermal,,24.8,1969,Sappi Stockstadt GmbH,Operational,Stockstadt,,2016,,,,,,,49.97745,9.06872,,Open Power System Data,http://data.open-power-system-data.org/,,,,,,,,,,,,Germany,,Open Power System Data
1005760,Heizkraftwerk Stuttgart-Gaisburg,Coal,,Sub-critical Thermal,,22.6,2009,EnBW Energie Baden-Württemberg AG,Operational,Stuttgart,,2016,,,,,,,48.782453,9.231483,,Open Power System Data,http://data.open-power-system-data.org/,,,,,,,,,,,,Germany,,Open Power System Data
1005752,Heizkraftwerk Magirusstraße,Coal,,Sub-critical Thermal,,20.7,1978,Fernwärme Ulm GmbH,Operational,Ulm,,2016,,,,,,,48.39704,9.96484,,Open Power System Data,http://data.open-power-system-data.org/,,,,,,,,,,,,Germany,,Open Power System Data
1006017,Reno De Medici,Coal,,Sub-critical Thermal,,19,1923-1956,Reno De Medici Arnsberg GmbH,Operational,Arnsberg,,2016,,,,,,,51.39139,8.07304,,Open Power System Data,http://data.open-power-system-data.org/,,,,,,,,,,,,Germany,,Open Power System Data
1006124,Vohburg,Hydro,,Run-of-River,,23.3,1992,Donau-Wasserkraft AG,Operational,Vohburg,,2016,,,,,,,48.778103,11.60119,,Open Power System Data,http://data.open-power-system-data.org/,,,,,,,,,,,,Germany,,Open Power System Data
1006055,Stammham,Hydro,,Run-of-River,,23.2,1955,VERBUND-Innkraftwerke GmbH,Operational,Stammham,,2016,,,,,,,48.24932,12.86469,,Open Power System Data,http://data.open-power-system-data.org/,,,,,,,,,,,,Germany,,Open Power System Data
1006000,Pfrombach,Hydro,,Run-of-River,,22.3,1929,E.ON Kraftwerke GmbH,Operational,Moosburg-Pfrombach,,2016,,,,,,,48.44132,11.99233,,Open Power System Data,http://data.open-power-system-data.org/,,,,,,,,,,,,Germany,,Open Power System Data
1006035,Rudolf-Fettweis-Werk 1,Hydro,,Run-of-River,,22,1918,EnBW Energie Baden-Württemberg AG,Operational,Forbach,,2016,,,,,,,48.6731884,8.355705841,,Open Power System Data,http://data.open-power-system-data.org/,,,,,,,,,,,,Germany,,Open Power System Data
1006035,Rudolf-Fettweis-Werk 2,Hydro,,Pumped Storage,,43,1926,EnBW Energie Baden-Württemberg AG,Operational,Forbach,,2016,,,,,,,48.6693835,8.353047617,,Open Power System Data,http://data.open-power-system-data.org/,,,,,,,,,,,,Germany,,Open Power System Data
1006060,Straubing,Hydro,,Run-of-River,,21.5,1994,Rhein-Main-Donau AG,Operational,Straubing,,2016,,,,,,,48.89659,12.55752,,Open Power System Data,http://data.open-power-system-data.org/,,,,,,,,,,,,Germany,,Open Power System Data
1005603,Bittenbrunn,Hydro,,Run-of-River,,20.2,1969,Donau-Wasserkraft AG,Operational,Neuburg an der Donau,,2016,,,,,,,48.734459,11.14382,,Open Power System Data,http://data.open-power-system-data.org/,,,,,,,,,,,,Germany,,Open Power System Data
1005932,Lehmen,Hydro,,Run-of-River,,20,1962,RWE Innogy GmbH,Operational,Lehmen,,2016,,,,,,,50.274724,7.458957,,Open Power System Data,http://data.open-power-system-data.org/,,,,,,,,,,,,Germany,,Open Power System Data
1006147,Wintrich,Hydro,,Run-of-River,,20,1965,RWE Innogy GmbH,Operational,Wintrich,,2016,,,,,,,49.879784,6.948762,,Open Power System Data,http://data.open-power-system-data.org/,,,,,,,,,,,,Germany,,Open Power System Data
1006065,Tannheim,Hydro,,Run-of-River,,12.3,1923,EnBW Energie Baden-Württemberg AG,Operational,Tannheim,,2016,,,,,,,48.00795,10.118537,,Open Power System Data,http://data.open-power-system-data.org/,,,,,,,,,,,,Germany,,Open Power System Data
1006040,Scheuring,Hydro,,Run-of-River,,12.2,1980,E.ON Kraftwerke GmbH,Operational,Scheuring,,2016,,,,,,,48.180229,10.8833102,,Open Power System Data,http://data.open-power-system-data.org/,,,,,,,,,,,,Germany,,Open Power System Data
1006005,Prittriching,Hydro,,Run-of-River,,12.1,1984,E.ON Kraftwerke GmbH,Operational,Prittriching,,2016,,,,,,,48.21062,10.904933,,Open Power System Data,http://data.open-power-system-data.org/,,,,,,,,,,,,Germany,,Open Power System Data
1006046,Serrig,Hydro,,Run-of-River,,12.1,1985,RWE Innogy GmbH,Operational,Freudenburg,,2016,,,,,,,49.566954,6.592348,,Open Power System Data,http://data.open-power-system-data.org/,,,,,,,,,,,,Germany,,Open Power System Data
1005939,Merching,Hydro,,Run-of-River,,12,1978,E.ON Kraftwerke GmbH,Operational,Merching,,2016,,,,,,,48.2704497,10.9773463,,Open Power System Data,http://data.open-power-system-data.org/,,,,,,,,,,,,Germany,,Open Power System Data
1006043,Schwabstadl,Hydro,,Run-of-River,,12,1981,E.ON Kraftwerke GmbH,Operational,Scheuring,,2016,,,,,,,48.148375,10.867023,,Open Power System Data,http://data.open-power-system-data.org/,,,,,,,,,,,,Germany,,Open Power System Data
1005989,Oberpeiching,Hydro,,Run-of-River,,11.9,1954,Rhein-Main-Donau AG,Operational,Oberndorf,,2016,,,,,,,48.646423,10.879086,,Open Power System Data,http://data.open-power-system-data.org/,,,,,,,,,,,,Germany,,Open Power System Data
1006132,Wehr,Hydro,,Pumped Storage,,910,1975,Schluchseewerk Aktiengesellschaft,Operational,Wehr,,2016,,,,,,,47.64529898,7.91819945,,Open Power System Data,http://data.open-power-system-data.org/,,,,,,,,,,,,Germany,,Open Power System Data
1005938,Meitingen,Hydro,,Run-of-River,,11.3,1922,Bayerische Elektrizitätswerke GmbH,Operational,Meitingen,,2016,,,,,,,48.546994,10.86507,,Open Power System Data,http://data.open-power-system-data.org/,,,,,,,,,,,,Germany,,Open Power System Data
1005878,Kraftwerk Dessau,lignite coal,,Sub-critical Thermal,,49,1996,Kraftwerk Dessau GmbH,Operational,Dessau-Roßlau,,2016,,,,,,,51.82685,12.23003,,Open Power System Data,http://data.open-power-system-data.org/,,,,,,,,,,,,Germany,,Open Power System Data
1005742,Heizkraftwerk FFO,lignite coal,,Sub-critical Thermal,,45,1997,Stadtwerke Frankfurt (Oder) GmbH,Operational,Frankfurt Oder,,2016,,,,,,0.4,52.346,14.546,,Open Power System Data,http://data.open-power-system-data.org/,,,,,,,,,,,,Germany,,Open Power System Data
1005679,FKK,lignite coal,,Sub-critical Thermal,,33.5,1988,Städtische Werke Energie + Wärme GmbH,Operational,Kassel,,2016,,,,,,,51.279099,9.484012,,Open Power System Data,http://data.open-power-system-data.org/,,,,,,,,,,,,Germany,,Open Power System Data
1006125,Wählitz,lignite coal,,Sub-critical Thermal,,31,1994,Mitteldeutsche Braunkohlengesellschaft mbH,Operational,Wählitz,,2016,,,,,,0.385,51.16664,12.07622,,Open Power System Data,http://data.open-power-system-data.org/,,,,,,,,,,,,Germany,,Open Power System Data
1005809,HKW Sachtleben,lignite coal,,Sub-critical Thermal,,27.5,1962,Sachtleben Chemie GmbH,Operational,Duisburg,,2016,,,,,,,51.44089,6.70543,,Open Power System Data,http://data.open-power-system-data.org/,,,,,,,,,,,,Germany,,Open Power System Data
1005994,P&L Werk Jülich,lignite coal,,Sub-critical Thermal,,24.6,2004,Pfeifer & Langen Kommanditgesellschaft,Operational,Jülich,,2016,,,,,,,50.91517,6.36935,,Open Power System Data,http://data.open-power-system-data.org/,,,,,,,,,,,,Germany,,Open Power System Data
1005995,P&L Werk Könnern,lignite coal,,Sub-critical Thermal,,20.3,1993,Pfeifer & Langen Kommanditgesellschaft,Operational,Könnern,,2016,,,,,,,51.69784,11.7581,,Open Power System Data,http://data.open-power-system-data.org/,,,,,,,,,,,,Germany,,Open Power System Data
1005673,EZ1,lignite coal,,Sub-critical Thermal,2x18.5,18.5,1993,"Südzucker AG Mannheim/Ochsenfurt, Werk Zeitz",Operational,Zeitz,,2016,,,,,,,51.04885,12.11038,"One unit is Oil powered, the other is 1 powered",Open Power System Data,http://data.open-power-system-data.org/,,,,,,,,,,,,Germany,,Open Power System Data
1006094,Coal Plant #1,lignite coal,,Sub-critical Thermal,,17.5,2005,CropEnergies Bioethanol GmbH Zeitz,Operational,Zeitz,,2016,,,,,,,51.04885,12.11038,,Open Power System Data,http://data.open-power-system-data.org/,,,,,,,,,,,,Germany,,Open Power System Data
1005680,Fortuna Nord,lignite coal,,Sub-critical Thermal,,15,1984,RWE Power AG,Operational,Bergheim,,2016,,,,,,,50.945598,6.663576,,Open Power System Data,http://data.open-power-system-data.org/,,,,,,,,,,,,Germany,,Open Power System Data
1005993,P&L Werk Euskirchen,lignite coal,,Sub-critical Thermal,,14.5,1970-2013,Pfeifer & Langen Kommanditgesellschaft,Operational,Euskirchen,,2016,,,,,,,50.65803,6.81012,,Open Power System Data,http://data.open-power-system-data.org/,,,,,,,,,,,,Germany,,Open Power System Data
1005750,Heizkraftwerk Krefeld,Natural Gas,,Sub-critical Thermal,,12.6,1990-2013,SWK ENERGIE GmbH,Operational,Krefeld,,2016,,,,,,,51.3387609,6.5853417,,Open Power System Data,http://data.open-power-system-data.org/,,,,,,,,,,,,Germany,,Open Power System Data
1005801,HKW Merkenich (Natural Gas),Natural Gas,,CCGT,,108,2004,RheinEnergie AG,Operational,Köln,142.445,2016,,,,,,0.53,51.01781,6.96435,,Open Power System Data,http://data.open-power-system-data.org/,ENTSOE (For Generation only),https://transparency.entsoe.eu/generation/r2/installedCapacityPerProductionUnit/show,,,,,,,,,,Germany,,Open Power System Data
1005887,Kraftwerk Meggle,Natural Gas,,Sub-critical Thermal,,12.6,2000,Molkerei MEGGLE Wasserburg GmbH & Co. KG,Operational,Reitmehring,,2016,,,,,,,48.056351,12.185174,,Open Power System Data,http://data.open-power-system-data.org/,,,,,,,,,,,,Germany,,Open Power System Data
1005589,BHKW Ludwigshafen,Natural Gas,,Sub-critical Thermal,,12.5,2008,MVV Energie AG,Operational,Ludwigshafen,,2016,,,,,,,49.45308,8.43364,,Open Power System Data,http://data.open-power-system-data.org/,,,,,,,,,,,,Germany,,Open Power System Data
1005844,Industriekraftwerk Ludwigshafen,Natural Gas,,CCGT,,12,2003,MVV Energie AG,Operational,Ludwigshafen,,2016,,,,,,,49.453181,8.433592,,Open Power System Data,http://data.open-power-system-data.org/,,,,,,,,,,,,Germany,,Open Power System Data
1005745,Heizkraftwerk Hafen,Natural Gas,,CCGT,,100.2,2005,Stadtwerke Münster GmbH,Operational,Münster,,2016,,,,,,,51.950086,7.641276,,Open Power System Data,http://data.open-power-system-data.org/,,,,,,,,,,,,Germany,,Open Power System Data
1005796,HKW Karcherstr. (Natural Gas),Natural Gas,,Sub-critical Thermal,,11.6,1989,SWK - Stadtwerke Kaiserslautern,Operational,Kaiserslautern,,2016,,,,,,,49.434659,7.760234,,Open Power System Data,http://data.open-power-system-data.org/,,,,,,,,,,,,Germany,,Open Power System Data
1006054,Spitzenlastkraftwerk Wolfen,Natural Gas,,Sub-critical Thermal,,40,1997,envia THERM GmbH,Operational,Wolfen,,2016,,,,,,,51.643127,12.228892,,Open Power System Data,http://data.open-power-system-data.org/,,,,,,,,,,,,Germany,,Open Power System Data
1005967,Natural Gas- u. Dampfturbinenanlage Südraum,Natural Gas,,Sub-critical Thermal,,38.6,2012,ZF Friedrichshafen AG,Operational,Saarbrücken,,2016,,,,,,,49.213706,6.97813,,Open Power System Data,http://data.open-power-system-data.org/,,,,,,,,,,,,Germany,,Open Power System Data
1005843,Industriekraftwerk Greifswald,Natural Gas,,Sub-critical Thermal,,37.7,2014,Industriekraftwerk Greifswald GmbH,Operational,Lubmin,,2016,,,,,,0.39,54.137883,13.667149,,Open Power System Data,http://data.open-power-system-data.org/,,,,,,,,,,,,Germany,,Open Power System Data
1005761,Heizkraftwerk West,Natural Gas,,Sub-critical Thermal,,37,1984,Stadtwerke Karlsruhe GmbH,Operational,Karlsruhe,,2016,,,,,,,49.014444,8.348056,,Open Power System Data,http://data.open-power-system-data.org/,,,,,,,,,,,,Germany,,Open Power System Data
1005767,HKW Brandenburg,Natural Gas,,Sub-critical Thermal,,36,1997,Stadtwerke Brandenburg an der Havel GmbH,Operational,Brandenburg,,2016,,,,,,,51.512175,13.97109,,Open Power System Data,http://data.open-power-system-data.org/,,,,,,,,,,,,Germany,,Open Power System Data
1005815,HKW Südstadt,Natural Gas,,CCGT,,35,1994,RheinEnergie AG,Operational,Köln,,2016,,,,,,,50.91697,6.95725,,Open Power System Data,http://data.open-power-system-data.org/,,,,,,,,,,,,Germany,,Open Power System Data
1005671,EVC / GLOBALFOUNDRIES,Natural Gas,,Sub-critical Thermal,,34.3,1998,Energieversorgungscenter Dresden-Wilschdorf GmbH & Co. KG,Operational,Moritzburg,,2016,,,,,,,51.12697,13.715,,Open Power System Data,http://data.open-power-system-data.org/,,,,,,,,,,,,Germany,,Open Power System Data
1005875,Kraftwerk 2,Natural Gas,,Sub-critical Thermal,"2 units (26.2, 8)",34.2,"1990, 2012",Papierfabrik Adolf Jass Schwarza GmbH,Operational,Fulda,,2016,,,,,,,50.56912,9.68128,,Open Power System Data,http://data.open-power-system-data.org/,,,,,,,,,,,,Germany,,Open Power System Data
1006113,Unterbreizbach,Natural Gas,,Sub-critical Thermal,,33.6,1965,K+S AG,Operational,Unterbreizbach,,2016,,,,,,,50.81319,9.97752,,Open Power System Data,http://data.open-power-system-data.org/,,,,,,,,,,,,Germany,,Open Power System Data
1006050,SKW Natural Gasturbine,Oil,,OCGT,,24,1988,Allgäuer Ãœberlandwerk GmbH,Operational,Waltenhofen-Veits,,2016,,,,,,,47.683464,10.31911,,Open Power System Data,http://data.open-power-system-data.org/,,,,,,,,,,,,Germany,,Open Power System Data
1006053,Spitzenlastkraftwerk Sermuth,Oil,,Sub-critical Thermal,,17,1995,envia THERM GmbH,Operational,Großbothen,,2016,,,,,,,51.161368,12.781496,,Open Power System Data,http://data.open-power-system-data.org/,,,,,,,,,,,,Germany,,Open Power System Data
1005634,DKW Leinau,Oil,,Sub-critical Thermal,,11.4,1978 - 1983,Vereinigte Wertach-Elektrizitätswerke GmbH,Operational,Pforzen,,2016,,,,,,,47.912537,10.61174,,Open Power System Data,http://data.open-power-system-data.org/,,,,,,,,,,,,Germany,,Open Power System Data
1005635,DKW Nord,Oil,,Sub-critical Thermal,,11.4,1988,Vereinigte Wertach-Elektrizitätswerke GmbH,Operational,Mindelheim,,2016,,,,,,,48.062671,10.486643,,Open Power System Data,http://data.open-power-system-data.org/,,,,,,,,,,,,Germany,,Open Power System Data
1006049,SKW Diesel,Oil,,Sub-critical Thermal,,10.5,1978,Allgäuer Ãœberlandwerk GmbH,Operational,Waltenhofen-Veits,,2016,,,,,,,47.683464,10.31911,,Open Power System Data,http://data.open-power-system-data.org/,,,,,,,,,,,,Germany,,Open Power System Data
1005983,Notstromdiesel,Oil,,Sub-critical Thermal,,0.5,1991,DS Smith Paper Deutschland GmbH,Operational,Aschaffenburg,,2016,,,,,,,49.988218,9.155761,,Open Power System Data,http://data.open-power-system-data.org/,,,,,,,,,,,,Germany,,Open Power System Data
1006145,Wilmersdorf,Oil,,Sub-critical Thermal,3x276,828,1977,Vattenfall Europe Wärme AG,Operational,Berlin,,2016,,,,,,,52.48159366,13.30761909,,Open Power System Data,http://data.open-power-system-data.org/,,,,,,,,,,,,Germany,,Open Power System Data
1005835,IKS PCK Schwedt,Oil,,Sub-critical Thermal,"5 units(2x106, 1x59, 1x34.5, 1x28)",333.5,1972-2011,PCK Raffinerie GmbH,Operational,PCK Schwedt,1653.086,2016,,,,,,,53.09818,14.23454,,Open Power System Data,http://data.open-power-system-data.org/,,,,,,,,,,,,Germany,,Open Power System Data
1005622,Brunsbüttel,Oil,,OCGT,4x63.5,254,1973,Vattenfall Europe Generation AG,Operational,Brunsbüttel,,2016,,,,,,,53.89251924,9.201135635,,Open Power System Data,http://data.open-power-system-data.org/,,,,,,,,,,,,Germany,,Open Power System Data
1005912,KW Mittelsbüren,Oil,,OCGT,"2 units (88, 110)",198,1974-1975,swb Erzeugung GmbH & Co. KG,Operational,Bremen,952.645,2016,,,,,,,53.12891,8.68524,,Open Power System Data,http://data.open-power-system-data.org/,,,,,,,,,,,,Germany,,Open Power System Data
1005897,Kraftwerk Walheim,Oil,,OCGT,,136,1981,EnBW Energie Baden-Württemberg AG,Operational,Walheim,24.82,2016,,,,,,,49.017472,9.157389,,Open Power System Data,http://data.open-power-system-data.org/,,,,,,,,,,,,Germany,,Open Power System Data
1006052,Spitzenlastkraftwerk Großkayna,Oil,,OCGT,,120,1994,envia THERM GmbH,Operational,Großkayna,,2016,,,,,,,51.29192,11.94645,,Open Power System Data,http://data.open-power-system-data.org/,,,,,,,,,,,,Germany,,Open Power System Data
1006131,Wedel,Oil,,OCGT,2x50.5,101,1972,Vattenfall Europe Generation AG,Operational,Wedel,,2016,,,,,,0.55,53.56625104,9.728479385,,Open Power System Data,http://data.open-power-system-data.org/,,,,,,,,,,,,Germany,,Open Power System Data
1006031,RMVA Köln,Waste,,Sub-critical Thermal,,45.1,1997,AVG Köln mbH,Operational,Köln,,2016,,,,,,,51.0003,6.94358,,Open Power System Data,http://data.open-power-system-data.org/,,,,,,,,,,,,Germany,,Open Power System Data
1005797,HKW Mannheim,Waste,,Sub-critical Thermal,"4 units(5.8, 8.1, 8.7, 22.1)",44.7,2005-2012,MVV Energie AG,Operational,Mannheim,,2016,,,,,,,49.5224,8.45294,,Open Power System Data,http://data.open-power-system-data.org/,,,,,,,,,,,,Germany,,Open Power System Data
1005940,MHKW,Waste,,Sub-critical Thermal,,44,1969-2012,swb Entsorgung GmbH & Co. KG,Operational,Bremen,,2016,,,,,,,53.114562,8.818186,,Open Power System Data,http://data.open-power-system-data.org/,,,,,,,,,,,,Germany,,Open Power System Data
1005854,Karnap,Waste,,Sub-critical Thermal,,38,1987,RWE Generation SE,Operational,Essen,,2016,,,,,,,51.51543,6.99382,,Open Power System Data,http://data.open-power-system-data.org/,,,,,,,,,,,,Germany,,Open Power System Data
1006076,TRV Buschhaus,Waste,,Sub-critical Thermal,,37.5,1998,EEW Energy from Waste Helmstedt GmbH,Operational,Helmstedt,,2016,,,,,,,52.17138,10.97637,,Open Power System Data,http://data.open-power-system-data.org/,,,,,,,,,,,,Germany,,Open Power System Data
1006023,Reuter Waste Facility,Waste,,Sub-critical Thermal,,36,1998,Vattenfall Europe Wärme Aktiengesellschaft,Operational,Berlin,,2016,,,,,,,52.532146,13.246072,,Open Power System Data,http://data.open-power-system-data.org/,,,,,,,,,,,,Germany,,Open Power System Data
1005627,Dampfturbinenanlage der EBS-Kessel,Waste,,CCGT,,35,2010,Solvay Chemicals GmbH,Operational,Bernburg,,2016,,,,,,,51.802609,11.751511,,Open Power System Data,http://data.open-power-system-data.org/,,,,,,,,,,,,Germany,,Open Power System Data
1005962,MVA Bielefeld,Waste,,Sub-critical Thermal,,34,1981,MVA Bielefeld-Herford GmbH,Operational,Bielefeld,,2016,,,,,,,52.04269,8.60719,,Open Power System Data,http://data.open-power-system-data.org/,,,,,,,,,,,,Germany,,Open Power System Data
1005944,MHKW Pirmasens,Waste,,Sub-critical Thermal,,15,1999,EEW Energy from Waste Saarbrücken GmbH,Operational,Pirmasens,,2016,,,,,,,49.22822,7.59553,,Open Power System Data,http://data.open-power-system-data.org/,,,,,,,,,,,,Germany,,Open Power System Data
1005957,Müllheizkraftwerk Kassel,Waste,,Sub-critical Thermal,,14.7,1985,Müllheizkraftwerk Kassel GmbH,Operational,Kassel,,2016,,,,,,,51.2976283,9.52410538,,Open Power System Data,http://data.open-power-system-data.org/,,,,,,,,,,,,Germany,,Open Power System Data
1005963,MVA Hamm,Waste,,Sub-critical Thermal,,14.6,1985,MHB Hamm Betriebsführungsgesellschaft mbH,Operational,Hamm,,2016,,,,,,,51.68039,7.74422,,Open Power System Data,http://data.open-power-system-data.org/,,,,,,,,,,,,Germany,,Open Power System Data
1005672,EVE,Waste,,Sub-critical Thermal,,14.5,2009,EEW Energy from Waste Premnitz GmbH,Operational,Premnitz,,2016,,,,,,,52.53505,12.36259,,Open Power System Data,http://data.open-power-system-data.org/,,,,,,,,,,,,Germany,,Open Power System Data
1005582,BEG,Waste,,Sub-critical Thermal,,14,1977,Bremerhavener Entsorgungsgesellschaft mbH,Operational,Bremerhaven,,2016,,,,,,,53.54782,8.61792,,Open Power System Data,http://data.open-power-system-data.org/,,,,,,,,,,,,Germany,,Open Power System Data
1006071,TREA Breisgau,Waste,,Sub-critical Thermal,,13.6,2005,EEW Energy from Waste Saarbrücken GmbH,Operational,Eschbach,,2016,,,,,,,47.89061,7.61608,,Open Power System Data,http://data.open-power-system-data.org/,,,,,,,,,,,,Germany,,Open Power System Data
1005641,Duisburg Hamborn,BFG,,CCGT,"3 units (60, 100, 225)",385,1958,ThyssenKrupp Steel Europe AG,Operational,Hamborn,,2016,,,,,,,51.491,6.72749,859.283,Open Power System Data,http://data.open-power-system-data.org/,,,,,,,,,,,,Germany,,Open Power System Data
1005642,Duisburg Ruhrort,BFG,,Sub-critical Thermal,"3 units (60, 90, 165)",315,1955-1968,ThyssenKrupp Steel Europe AG,Operational,Duisburg - Ruhrort,,2016,,,,,,,51.459673,6.730574,406.04,Open Power System Data,http://data.open-power-system-data.org/,,,,,,,,,,,,Germany,,Open Power System Data
1005830,Huckingen,BFG,,CCGT,2x303,606,1975-1976,Hüttenwerke Krupp Mannesmann GmbH,Operational,Duisburg-Huckingen,2165.141,2016,,,,,,,51.36787,6.7167,,Open Power System Data,http://data.open-power-system-data.org/,,,,,,,,,,,,Germany,,Open Power System Data
1006154,Zolling,Biomass,,Sub-critical Thermal,"3 units (1x472 (Coal), 1x46 (Oil), 1x10 (Biomass)",528,1976-2003,GDF SUEZ Energie Deutschland AG,Operational,Zolling,2018.133,2016,,,,,,,48.455353,11.799456,,Open Power System Data,http://data.open-power-system-data.org/,,,,,,,,,,,,Germany,,Open Power System Data
1006151,Zellstoff Stendal GmbH,Biomass,,Sub-critical Thermal,,138.9,2004-2013,Zellstoff Stendal GmbH,Operational,Arneburg,,2016,,,,,,,52.72713,12.01115,,Open Power System Data,http://data.open-power-system-data.org/,,,,,,,,,,,,Germany,,Open Power System Data
1006059,Stora Enso Maxau,Biomass,,Sub-critical Thermal,,78,2010,Stora Enso Maxau GmbH,Operational,Karlsruhe,,2016,,,,,,,49.0393,8.31134,,Open Power System Data,http://data.open-power-system-data.org/,,,,,,,,,,,,Germany,,Open Power System Data
1006038,SCA Mannheim,Biomass,,Sub-critical Thermal,,59.2,1966-2000,SCA HYGIENE PRODUCTS GmbH,Operational,Mannheim,,2016,,,,,,,49.5349,8.46358,,Open Power System Data,http://data.open-power-system-data.org/,,,,,,,,,,,,Germany,,Open Power System Data
1006142,Wi-Biebrich,Biomass,,Sub-critical Thermal,2 units (6.7 (Biomass) and 25 (Natural Gas),31.7,2003-2006,InfraServ GmbH & Co. Wiesbaden KG,Operational,Wiesbaden,,2016,,,,,,,50.040546,8.253248,,Open Power System Data,http://data.open-power-system-data.org/,,,,,,,,,,,,Germany,,Open Power System Data
1006139,Werkskraftwerk Sappi Ehingen,Biomass,,Sub-critical Thermal,"2 units (8, 13.2)",21.2,1961-1990,Sappi Ehingen GmbH,Operational,Ehingen,,2016,,,,,,,48.26698,9.72615,,Open Power System Data,http://data.open-power-system-data.org/,,,,,,,,,,,,Germany,,Open Power System Data
1005609,BMK Lünen,Biomass,,Sub-critical Thermal,,20,2006,STEAG New Energies GmbH,Operational,Lünen,,2016,,,,,,,51.61403992,7.481253974,,Open Power System Data,http://data.open-power-system-data.org/,,,,,,,,,,,,Germany,,Open Power System Data
1005656,Emden Biomasse,Biomass,,Sub-critical Thermal,,20,2005,Statkraft Markets GmbH,Operational,Emden,,2016,,,,,,,53.34217,7.20624,,Open Power System Data,http://data.open-power-system-data.org/,,,,,,,,,,,,Germany,,Open Power System Data
1005930,Landesbergen Biomasse,Biomass,,Sub-critical Thermal,,20,2005,Statkraft Markets GmbH,Operational,Landesbergen,,2016,,,,,,,52.57703,9.11009,,Open Power System Data,http://data.open-power-system-data.org/,,,,,,,,,,,,Germany,,Open Power System Data
1005961,Müllverwertung Borsigstraße MVB,Biomass,,Sub-critical Thermal,,20,2005,MVB Müllverwertung Borsigstraße GmbH,Operational,Hamburg,,2016,,,,,,,53.53188044,10.07459164,,Open Power System Data,http://data.open-power-system-data.org/,,,,,,,,,,,,Germany,,Open Power System Data
1005660,Energieanlage 3,Biomass,,Sub-critical Thermal,,18.6,2002,Kronoply GmbH,Operational,Heiligengrabe,,2016,,,,,,,53.148966,12.379742,,Open Power System Data,http://data.open-power-system-data.org/,,,,,,,,,,,,Germany,,Open Power System Data
1006109,Biomass Generator #21,Biomass,,Sub-critical Thermal,,18.3,2001,,Operational,Beeskow,,2016,,,,,,,52.18269,14.25841,,Open Power System Data,http://data.open-power-system-data.org/,,,,,,,,,,,,Germany,,Open Power System Data
1005602,Biomassekraftwerk Bischofferode,Biomass,,Sub-critical Thermal,,18.1,2006,Stadtwerke Leipzig GmbH,Operational,Bischofferode,,2016,,,,,,,51.48993,10.41307,,Open Power System Data,http://data.open-power-system-data.org/,,,,,,,,,,,,Germany,,Open Power System Data
1005651,Egger Kraftwerk Briilon 1,Biomass,,Sub-critical Thermal,,18,1990,Egger Kraftwerk Brilon GmbH,Operational,Brilon,,2016,,,,,,,51.40667,8.60115,,Open Power System Data,http://data.open-power-system-data.org/,,,,,,,,,,,,Germany,,Open Power System Data
1005613,BMKW Mannheim,Biomass,,Sub-critical Thermal,,17.9,2003,MVV Energie AG,Operational,Mannheim,,2016,,,,,,,49.51644467,8.460246482,,Open Power System Data,http://data.open-power-system-data.org/,,,,,,,,,,,,Germany,,Open Power System Data
1005610,BMKW Bergkamen,Biomass,,Sub-critical Thermal,,17.7,2005,RWE Energiedienstleistungen GmbH,Operational,Bergkamen,,2016,,,,,,,51.63701,7.61876,,Open Power System Data,http://data.open-power-system-data.org/,,,,,,,,,,,,Germany,,Open Power System Data
1005612,BMKW Königs Wusterhausen,Biomass,,Sub-critical Thermal,,17.1,2003,MVV Energie AG,Operational,Königs Wusterhausen,,2016,,,,,,,52.30479,13.63603,,Open Power System Data,http://data.open-power-system-data.org/,,,,,,,,,,,,Germany,,Open Power System Data
1006136,Werkskraftwerk Sappi Alfeld 1,Biomass,,Sub-critical Thermal,,16.8,1988,Sappi Alfeld GmbH,Operational,Alfeld,,2016,,,,,,,51.984761,9.822831,,Open Power System Data,http://data.open-power-system-data.org/,,,,,,,,,,,,Germany,,Open Power System Data
1005766,HHKW Berlin-Neukölln,Biomass,,Sub-critical Thermal,,16.5,2005,RWE Energiedienstleistungen GmbH,Operational,Berlin,,2016,,,,,,,52.42529,13.517308,,Open Power System Data,http://data.open-power-system-data.org/,,,,,,,,,,,,Germany,,Open Power System Data
1006121,UTB,Biomass,,Sub-critical Thermal,,16,2002,Pfleiderer Baruth GmbH,Operational,Baruth/Mark,,2016,,,,,,,52.07778,13.51725,,Open Power System Data,http://data.open-power-system-data.org/,,,,,,,,,,,,Germany,,Open Power System Data
1005922,KWK Neumarkt,Biomass,,Sub-critical Thermal,,15.6,1997,Pfleiderer Neumarkt GmbH,Operational,Neumarkt i.d. Oberpfalz,,2016,,,,,,,49.26133,11.4516,,Open Power System Data,http://data.open-power-system-data.org/,,,,,,,,,,,,Germany,,Open Power System Data
1005607,BMHKW-BinderHolz,Biomass,,Sub-critical Thermal,,15.1,2007,BinderHolz Deutschland GmbH,Operational,Kösching,,2016,,,,,,,48.79123,11.50679,,Open Power System Data,http://data.open-power-system-data.org/,,,,,,,,,,,,Germany,,Open Power System Data
1005593,Bio HKW Herbrechtingen,Biomass,,Sub-critical Thermal,,14,2004,Biomasse-Heizkraftwerk-Herbrechtingen GmbH,Operational,Herbrechtingen,,2016,,,,,,,48.628498,10.200853,,Open Power System Data,http://data.open-power-system-data.org/,,,,,,,,,,,,Germany,,Open Power System Data
1005608,BMHKW-RE Recklinghausen,Biomass,,Sub-critical Thermal,,14,2004,Ã–kotech Ingenieurgesellschaft mbh,Operational,Recklinghausen,,2016,,,,,,,51.604008,7.250848,,Open Power System Data,http://data.open-power-system-data.org/,,,,,,,,,,,,Germany,,Open Power System Data
1006117,UPM Schwedt,Biomass,,Sub-critical Thermal,,13.3,2009,UPM GmbH Werk Schwedt,Operational,Schwedt,,2016,,,,,,,53.08672,14.31935,,Open Power System Data,http://data.open-power-system-data.org/,,,,,,,,,,,,Germany,,Open Power System Data
1005595,BioHKW I,Biomass,,Sub-critical Thermal,"2 units (8.7, 4.5)",13.2,2003,Fernwärme Ulm GmbH,Operational,Ulm,,2016,,,,,,,48.39704,9.96484,,Open Power System Data,http://data.open-power-system-data.org/,,,,,,,,,,,,Germany,,Open Power System Data
1005611,BMKW Flörsheim Wicker,Biomass,,Sub-critical Thermal,,12.6,2003,MVV Energie AG,Operational,Flörsheim Wicker,,2016,,,,,,,50.022602,8.377209,,Open Power System Data,http://data.open-power-system-data.org/,,,,,,,,,,,,Germany,,Open Power System Data
1005604,BKF,Biomass,,Sub-critical Thermal,,12.4,2004,Mainova AG,Operational,Frankfurt am Main,,2016,,,,,,,50.12943,8.76792,,Open Power System Data,http://data.open-power-system-data.org/,,,,,,,,,,,,Germany,,Open Power System Data
1005755,Heizkraftwerk Pforzheim GmbH,Biomass,,Sub-critical Thermal,,12.3,2004,Heizkraftwerk Pforzheim GmbH,Operational,Pforzheim,,2016,,,,,,,48.89705,8.725,,Open Power System Data,http://data.open-power-system-data.org/,,,,,,,,,,,,Germany,,Open Power System Data
1005921,KWK Gütersloh,Biomass,,Sub-critical Thermal,,12.1,2001,Pfleiderer Gütersloh GmbH,Operational,Gütersloh,,2016,,,,,,,51.91537,8.40031,,Open Power System Data,http://data.open-power-system-data.org/,,,,,,,,,,,,Germany,,Open Power System Data
1006073,Trianel Kohlekraftwerk Lünen,Coal,,Sub-critical Thermal,,746,2013,Trianel Kohlekraftwerk Lünen GmbH & Co. KG,Operational,Lünen,,2016,,,,,,0.4595,51.6124,7.46532,,Open Power System Data,http://data.open-power-system-data.org/,,,,,,,,,,,,Germany,,Open Power System Data
1005904,KW Herne,Coal,,Sub-critical Thermal,"2 units (280, 449)",729,1966-1989,Steag GmbH,Operational,Herne,2352.909,2016,,,,,,0.36,51.550753,7.187481,,Open Power System Data,http://data.open-power-system-data.org/,ENTSOE (For Generation only),https://transparency.entsoe.eu/generation/r2/installedCapacityPerProductionUnit/show,,,,,,,,,,Germany,,Open Power System Data
1005877,Kraftwerk Bexbach,Coal,,Sub-critical Thermal,,721,1983,STEAG GmbH,Operational,Bexbach,2193.083,2016,,,,,,0.39,49.363481,7.237136,,Open Power System Data,http://data.open-power-system-data.org/,ENTSOE (For Generation only),https://transparency.entsoe.eu/generation/r2/installedCapacityPerProductionUnit/show,,,,,,,,,,Germany,,Open Power System Data
1005584,Bergkamen,Coal,,Sub-critical Thermal,,717,1981,RWE Generation SE,Operational,Bergkamen,2684.819,2016,,,,,,,51.63702,7.6191,,Open Power System Data,http://data.open-power-system-data.org/,ENTSOE (For Generation only),https://transparency.entsoe.eu/generation/r2/installedCapacityPerProductionUnit/show,,,,,,,,,,Germany,,Open Power System Data
1006133,Weiher,Coal,,Sub-critical Thermal,,655.6,1976,STEAG Power Saar GmbH,Operational,Quierschied,1604.843,2016,,,,,,0.37,49.33413028,7.031355928,,Open Power System Data,http://data.open-power-system-data.org/,ENTSOE (For Generation only),https://transparency.entsoe.eu/generation/r2/installedCapacityPerProductionUnit/show,,,,,,,,,,Germany,,Open Power System Data
1005917,KW West,Coal,,Sub-critical Thermal,2x320,640,1971,Steag GmbH,Operational,Voerde,,2016,,,,,,0.382,51.57962,6.67888,,Open Power System Data,http://data.open-power-system-data.org/,,,,,,,,,,,,Germany,,Open Power System Data
1006024,Reuter West,Coal,,Sub-critical Thermal,2x282,564,1987-1988,Vattenfall Europe Wärme AG,Operational,Berlin,2753.51,2016,,,,,,0.4,52.53508792,13.24264526,,Open Power System Data,http://data.open-power-system-data.org/,ENTSOE (For Generation only),https://transparency.entsoe.eu/generation/r2/installedCapacityPerProductionUnit/show,,,,,,,,,,Germany,,Open Power System Data
1006056,Staudinger,Coal,,Sub-critical Thermal,,1132,1992,E.ON Kraftwerke GmbH,Operational,Großkrotzenburg,2528.214,2016,,,,,,,50.088553,8.953399,,Open Power System Data,http://data.open-power-system-data.org/,ENTSOE (For Generation only),https://transparency.entsoe.eu/generation/r2/installedCapacityPerProductionUnit/show,,,,,,,,,,Germany,,Open Power System Data
1005911,KW Lünen,Coal,,Sub-critical Thermal,"2 units (149, 324)",473,1962-1969,Steag GmbH,Operational,Lünen,2605.035,2016,,,,,,0.36,51.61403992,7.481253974,,Open Power System Data,http://data.open-power-system-data.org/,ENTSOE (For Generation only),https://transparency.entsoe.eu/generation/r2/installedCapacityPerProductionUnit/show,,,,,,,,,,Germany,,Open Power System Data
1005879,Kraftwerk Ensdorf,Coal,,Sub-critical Thermal,"2 units (106, 283)",389,1963-1971,Gemeinschaft nach Bruchteilen der Saarstahl AG (SAG) und Saarschmiede GmbH Freiformschmiede (SSF),Operational,Ensdorf,1103.909,2016,,,,,,0.36,49.293248,6.770937,,Open Power System Data,http://data.open-power-system-data.org/,ENTSOE (For Generation only),https://transparency.entsoe.eu/generation/r2/installedCapacityPerProductionUnit/show,,,,,,,,,,Germany,,Open Power System Data
1005692,Gemeinschaftskraftwerk Kiel,Coal,,Sub-critical Thermal,,323,1970,Gemeinschaftskraftwerk Kiel GmbH,Operational,Kiel,1370.06,2016,,,,,,0.39,54.33945,10.1766,,Open Power System Data,http://data.open-power-system-data.org/,ENTSOE (For Generation only),https://transparency.entsoe.eu/generation/r2/installedCapacityPerProductionUnit/show,,,,,,,,,,Germany,,Open Power System Data
1005898,Kraftwerk Werdohl-Elverlingsen,Coal,,Sub-critical Thermal,,310,1982,Mark-E AG,Operational,Werdohl,508.377,2016,,,,,,,51.276361,7.705667,,Open Power System Data,http://data.open-power-system-data.org/,ENTSOE (For Generation only),https://transparency.entsoe.eu/generation/r2/installedCapacityPerProductionUnit/show,,,,,,,,,,Germany,,Open Power System Data
1005902,KW Hafen,Coal,,Sub-critical Thermal,,427,1979,swb Erzeugung GmbH & Co. KG,Operational,Bremen,1615.605,2016,,,,,,,53.124861,8.728657,,Open Power System Data,http://data.open-power-system-data.org/,ENTSOE (For Generation only),https://transparency.entsoe.eu/generation/r2/installedCapacityPerProductionUnit/show,,,,,,,,,,Germany,,Open Power System Data
1005697,GKH,Coal,,Sub-critical Thermal,2x136,272,1989,Stadtwerke Hannover AG,Operational,Hannover,1174.86,2016,,,,,,,52.42,9.648611,,Open Power System Data,http://data.open-power-system-data.org/,ENTSOE (For Generation only),https://transparency.entsoe.eu/generation/r2/installedCapacityPerProductionUnit/show,,,,,,,,,,Germany,,Open Power System Data
1006130,Wedel,Coal,,Sub-critical Thermal,"123, 137",260,1961-1962,Vattenfall Europe Wärme AG,Operational,Wedel,1658.141,2016,,,,,,0.36,53.56695702,9.724445343,,Open Power System Data,http://data.open-power-system-data.org/,ENTSOE (For Generation only),https://transparency.entsoe.eu/generation/r2/installedCapacityPerProductionUnit/show,,,,,,,,,,Germany,,Open Power System Data
1005734,Heizkraftwerk 3,Coal,,Sub-critical Thermal,,211,1989,STEAG Power Saar GmbH,Operational,Völklingen-Fenne,,2016,,,,,,0.37,49.249018,6.879244,,Open Power System Data,http://data.open-power-system-data.org/,,,,,,,,,,,,Germany,,Open Power System Data
1005805,HKW Nord West,Coal,,Sub-critical Thermal,"2 units (138.5, 61.5)",200,1985-2000,Volkswagen AG,Operational,Wolfsburg,,2016,,,,,,,51.25292,9.43796,,Open Power System Data,http://data.open-power-system-data.org/,,,,,,,,,,,,Germany,,Open Power System Data
1006069,Tiefstack,Coal,,Sub-critical Thermal,,194,1993,Vattenfall Europe Wärme Aktiengesellschaft,Operational,Hamburg,1267.156,2016,,,,,,,53.52616631,10.06317616,,Open Power System Data,http://data.open-power-system-data.org/,ENTSOE (For Generation only),https://transparency.entsoe.eu/generation/r2/installedCapacityPerProductionUnit/show,,,,,,,,,,Germany,,Open Power System Data
1005952,Modellkraftwerk,Coal,,Sub-critical Thermal,,179,1982,STEAG Power Saar GmbH,Operational,Völklingen-Fenne,,2016,,,,,,0.4,49.249018,6.879244,,Open Power System Data,http://data.open-power-system-data.org/,,,,,,,,,,,,Germany,,Open Power System Data
1006019,Restmüll-Heizkraftwerk Stuttgart-Münster,Coal,,Sub-critical Thermal,"4 units (2x45 Coal, 3x23.3 Oil)",159.9,1974-1984,EnBW Energie Baden-Württemberg AG,Operational,Stuttgart,,2016,,,,,,,48.815833,9.221111,,Open Power System Data,http://data.open-power-system-data.org/,,,,,,,,,,,,Germany,,Open Power System Data
1005743,Heizkraftwerk FL,Coal,,Sub-critical Thermal,"5 units (23, 27, 29, 33, 35",147,1978-1992,Stadtwerke Flensburg GmbH,Operational,Flensburg,,2016,,,,,,,54.80495,9.43244,,Open Power System Data,http://data.open-power-system-data.org/,,,,,,,,,,,,Germany,,Open Power System Data
1005818,HKW West,Coal,,Sub-critical Thermal,,138.5,1985,Volkswagen AG,Operational,Wolfsburg,,2016,,,,,,,52.44223,10.76454,,Open Power System Data,http://data.open-power-system-data.org/,,,,,,,,,,,,Germany,,Open Power System Data
1006022,Reuter,Coal,,Sub-critical Thermal,,124,1969,Vattenfall Europe Wärme Aktiengesellschaft,Operational,Berlin,392.88,2016,,,,,,,52.532146,13.246072,,Open Power System Data,http://data.open-power-system-data.org/,ENTSOE (For Generation only),https://transparency.entsoe.eu/generation/r2/installedCapacityPerProductionUnit/show,,,,,,,,,,Germany,,Open Power System Data
1005817,HKW West,Coal,,Sub-critical Thermal,2x61.5,123,1989,Mainova AG,Operational,Frankfurt am Main,,2016,,,,,,,50.09843,8.65313,,Open Power System Data,http://data.open-power-system-data.org/,,,,,,,,,,,,Germany,,Open Power System Data
1005903,KW Hastedt,Coal,,Sub-critical Thermal,,119,1989,swb Erzeugung GmbH & Co. KG,Operational,Bremen,,2016,,,,,,,53.06008,8.87328,,Open Power System Data,http://data.open-power-system-data.org/,,,,,,,,,,,,Germany,,Open Power System Data
1005784,HKW Erlangen (Coal),Coal,,Sub-critical Thermal,,17.4,1980,Erlanger Stadtwerke AG,Operational,Erlangen,,2016,,,,,,,49.59283,11.00148,,Open Power System Data,http://data.open-power-system-data.org/,,,,,,,,,,,,Germany,,Open Power System Data
1005795,HKW Karcherstr. (Coal),Coal,,Sub-critical Thermal,,13.4,1996,SWK - Stadtwerke Kaiserslautern,Operational,Kaiserslautern,,2016,,,,,,,49.43461,7.75824,,Open Power System Data,http://data.open-power-system-data.org/,,,,,,,,,,,,Germany,,Open Power System Data
1005576,Alzwerke GmbH,Hydro,,Run-of-River,,45,1922,Wacker Chemie AG,Operational,Burghausen,,2016,,,,,,,48.1769,12.84045,,Open Power System Data,http://data.open-power-system-data.org/,,,,,,,,,,,,Germany,,Open Power System Data
1005997,Passau-Ingling,Hydro,,Run-of-River,,43.2,1965,Innwerk AG,Operational,Passau,,2016,,,,,,,48.5533054,13.4336591,,Open Power System Data,http://data.open-power-system-data.org/,,,,,,,,,,,,Germany,,Open Power System Data
1005653,Egglfing,Hydro,,Run-of-River,,40.4,1944,Innwerk AG,Operational,Bad Füssing,,2016,,,,,,,48.3206154,13.3160755,,Open Power System Data,http://data.open-power-system-data.org/,,,,,,,,,,,,Germany,,Open Power System Data
1005764,Hemfurth,Hydro,,Dam with Reservoir,2x20,40,1915,E.ON Kraftwerke GmbH,Operational,Edertal Hemfurth-Edersee,,2016,,,,,,,51.167139,9.046832,,Open Power System Data,http://data.open-power-system-data.org/,,,,,,,,,,,,Germany,,Open Power System Data
1005980,Niederwartha,Hydro,,Pumped Storage,,39.8,1957,Vattenfall Europe Generation AG,Operational,Niederwartha,,2016,,,,,,0.62,51.09153428,13.60982895,,Open Power System Data,http://data.open-power-system-data.org/,,,,,,,,,,,,Germany,,Open Power System Data
1005677,Feldkirchen,Hydro,,Run-of-River,,38.2,1970,VERBUND-Innkraftwerke GmbH,Operational,Rott,,2016,,,,,,,47.96092,12.1561,,Open Power System Data,http://data.open-power-system-data.org/,,,,,,,,,,,,Germany,,Open Power System Data
1005918,KW Wyhlen,Hydro,,Run-of-River,,37.9,1912,Energiedienst AG,Operational,Grenzach-Wyhlen,,2016,,,,,,,47.5523554,7.6580881,,Open Power System Data,http://data.open-power-system-data.org/,,,,,,,,,,,,Germany,,Open Power System Data
1006030,Rheinkraftwerk Säckingen,Hydro,,Run-of-River,,36.8,1959,"EnBW Energie Baden-Württemberg AG /
Energiedienst AG",Operational,Bad Säckingen,,2016,,,,,,,47.5585312,7.9556579,,Open Power System Data,http://data.open-power-system-data.org/,,,,,,,,,,,,Germany,,Open Power System Data
1005984,Nußdorf,Hydro,,Run-of-River,,36.6,1982,Innwerk AG,Operational,Nußdorf,,2016,,,,,,,47.74473,12.13573,,Open Power System Data,http://data.open-power-system-data.org/,,,,,,,,,,,,Germany,,Open Power System Data
1005667,Ering,Hydro,,Run-of-River,,36.5,1942,Innwerk AG,Operational,Ering,,2016,,,,,,,48.2935129,13.1585196,,Open Power System Data,http://data.open-power-system-data.org/,,,,,,,,,,,,Germany,,Open Power System Data
1006033,Rosenheim,Hydro,,Run-of-River,,35.1,1960,VERBUND-Innkraftwerke GmbH,Operational,Rohrdorf,,2016,,,,,,,47.83825,12.15333,,Open Power System Data,http://data.open-power-system-data.org/,,,,,,,,,,,,Germany,,Open Power System Data
1005986,Oberaudorf-Ebbs,Hydro,,Run-of-River,,30,1992,Innwerk AG,Operational,Oberaudorf,,2016,,,,,,,47.64133,12.19903,,Open Power System Data,http://data.open-power-system-data.org/,,,,,,,,,,,,Germany,,Open Power System Data
1006029,Rheinkraftwerk Ryburg-Schwörstadt,Hydro,,Run-of-River,,30,1931,EnBW Energie Baden-Württemberg AG,Operational,Rheinfelden,,2016,,,,,,,47.585377,7.832657,,Open Power System Data,http://data.open-power-system-data.org/,,,,,,,,,,,,Germany,,Open Power System Data
1005899,Kraftwerksgruppe Pfreimd,Hydro,,Pumped Storage,,28,1959,GDF SUEZ Energie Deutschland AG,Operational,Trausnitz,,2016,,,,,,0.8,49.55226,12.28127,,Open Power System Data,http://data.open-power-system-data.org/,,,,,,,,,,,,Germany,,Open Power System Data
1005899,Kraftwerksgruppe Pfreimd,Hydro,,Pumped Storage,,99,1955,GDF SUEZ Energie Deutschland AG,Operational,Trausnitz,,2016,,,,,,,49.53002,12.28481,,Open Power System Data,http://data.open-power-system-data.org/,,,,,,,,,,,,Germany,,Open Power System Data
1005579,Aufkirchen,Hydro,,Run-of-River,,27,1924,E.ON Kraftwerke GmbH,Operational,Oberding,,2016,,,,,,,48.3066864,11.858847,,Open Power System Data,http://data.open-power-system-data.org/,,,,,,,,,,,,Germany,,Open Power System Data
1005976,Neuötting,Hydro,,Run-of-River,,26.1,1951,VERBUND-Innkraftwerke GmbH,Operational,Neuötting,,2016,,,,,,,48.24856,12.6882725,,Open Power System Data,http://data.open-power-system-data.org/,,,,,,,,,,,,Germany,,Open Power System Data
1005654,Eitting,Hydro,,Run-of-River,,26,1925,E.ON Kraftwerke GmbH,Operational,Eitting,,2016,,,,,,,48.3585905,11.8821921,,Open Power System Data,http://data.open-power-system-data.org/,,,,,,,,,,,,Germany,,Open Power System Data
1005687,Gars,Hydro,,Run-of-River,,25,1938,VERBUND-Innkraftwerke GmbH,Operational,Gars,,2016,,,,,,,48.15395,12.31107,,Open Power System Data,http://data.open-power-system-data.org/,,,,,,,,,,,,Germany,,Open Power System Data
1005689,Geisling,Hydro,,Run-of-River,,25,1985,Rhein-Main-Donau AG,Operational,Pfatter,,2016,,,,,,,48.974806,12.344002,,Open Power System Data,http://data.open-power-system-data.org/,,,,,,,,,,,,Germany,,Open Power System Data
1006066,Teufelsbruck,Hydro,,Run-of-River,,25,1938,VERBUND-Innkraftwerke GmbH,Operational,Soyen,,2016,,,,,,,48.05736,12.22093,,Open Power System Data,http://data.open-power-system-data.org/,,,,,,,,,,,,Germany,,Open Power System Data
1006118,Uppenborn 1,Hydro,,Run-of-River,,25,1930,Stadtwerke München GmbH,Operational,Wang,,2016,,,,,,,48.473474,11.95481,,Open Power System Data,http://data.open-power-system-data.org/,,,,,,,,,,,,Germany,,Open Power System Data
1006129,Wasserburg,Hydro,,Run-of-River,,24.1,1938,VERBUND-Innkraftwerke GmbH,Operational,Wasserburg,,2016,,,,,,,48.05699,12.22074,,Open Power System Data,http://data.open-power-system-data.org/,,,,,,,,,,,,Germany,,Open Power System Data
1005630,Detzem,Hydro,,Run-of-River,,24,1962,RWE Innogy GmbH,Operational,Schleich,,2016,,,,,,,49.810941,6.843882,,Open Power System Data,http://data.open-power-system-data.org/,,,,,,,,,,,,Germany,,Open Power System Data
1006149,WKW,Hydro,,Run-of-River,,24,2009,Rheinkraftwerk Albbruck- Dogern AG,Operational,Dogern,,2016,,,,,,,47.598482,8.170982,,Open Power System Data,http://data.open-power-system-data.org/,,,,,,,,,,,,Germany,,Open Power System Data
1005583,Bergheim,Hydro,,Run-of-River,,23.7,1970,Donau-Wasserkraft AG,Operational,Bergheim,,2016,,,,,,,48.750807,11.273237,,Open Power System Data,http://data.open-power-system-data.org/,,,,,,,,,,,,Germany,,Open Power System Data
1005847,Ingolstadt,Hydro,,Run-of-River,,19.8,1971,Donau-Wasserkraft AG,Operational,Ingolstadt,,2016,,,,,,,48.750317,11.412153,,Open Power System Data,http://data.open-power-system-data.org/,,,,,,,,,,,,Germany,,Open Power System Data
1006004,Prem,Hydro,,Run-of-River,,19.2,1971,E.ON Kraftwerke GmbH,Operational,Lechbruck,,2016,,,,,,,47.692726,10.797592,,Open Power System Data,http://data.open-power-system-data.org/,,,,,,,,,,,,Germany,,Open Power System Data
1006028,Rheinkraftwerk Reckingen,Hydro,,Run-of-River,,19,1938,EnBW Energie Baden-Württemberg AG,Operational,Küssaberg,,2016,,,,,,,47.57136,8.33826,,Open Power System Data,http://data.open-power-system-data.org/,,,,,,,,,,,,Germany,,Open Power System Data
1005585,Bertoldsheim,Hydro,,Run-of-River,,18.9,1967,Donau-Wasserkraft AG,Operational,Rennertshofen,,2016,,,,,,,48.735932,11.020923,,Open Power System Data,http://data.open-power-system-data.org/,,,,,,,,,,,,Germany,,Open Power System Data
1006075,Trier,Hydro,,Run-of-River,,18.8,1961,RWE Innogy GmbH,Operational,Trier,,2016,,,,,,,49.728029,6.624451,,Open Power System Data,http://data.open-power-system-data.org/,,,,,,,,,,,,Germany,,Open Power System Data
1005876,Kraftwerk 3,Hydro,,Run-of-River,,18.5,1920,Alzkraftwerke Heider GmbH,Operational,Unterneukirchen,,2016,,,,,,,48.15393,12.65242,,Open Power System Data,http://data.open-power-system-data.org/,,,,,,,,,,,,Germany,,Open Power System Data
1005666,Enkirch,Hydro,,Run-of-River,,18.4,1966,RWE Innogy GmbH,Operational,Enkirch,,2016,,,,,,,49.97667,7.127777,,Open Power System Data,http://data.open-power-system-data.org/,,,,,,,,,,,,Germany,,Open Power System Data
1006119,Uppenborn 2,Hydro,,Run-of-River,,18,1951,Stadtwerke München GmbH,Operational,Tiefenbach,,2016,,,,,,,48.515233,12.101041,,Open Power System Data,http://data.open-power-system-data.org/,,,,,,,,,,,,Germany,,Open Power System Data
1005575,Altheim,Hydro,,Run-of-River,,17.8,1951,E.ON Kraftwerke GmbH,Operational,Essenbach,,2016,,,,,,,51.536513,14.382898,,Open Power System Data,http://data.open-power-system-data.org/,,,,,,,,,,,,Germany,,Open Power System Data
1005855,Kaufering,Hydro,,Run-of-River,,16.7,1975,E.ON Kraftwerke GmbH,Operational,Kaufering,,2016,,,,,,,48.084026,10.864936,,Open Power System Data,http://data.open-power-system-data.org/,,,,,,,,,,,,Germany,,Open Power System Data
1005637,Dornau,Hydro,,Run-of-River,,16.6,1960,E.ON Kraftwerke GmbH,Operational,Schongau,,2016,,,,,,,47.8001993,10.9026434,,Open Power System Data,http://data.open-power-system-data.org/,,,,,,,,,,,,Germany,,Open Power System Data
1005675,Fankel,Hydro,,Run-of-River,,16.4,1963,RWE Innogy GmbH,Operational,Ellenz-Poltersdorf,,2016,,,,,,,50.123918,7.225915,,Open Power System Data,http://data.open-power-system-data.org/,,,,,,,,,,,,Germany,,Open Power System Data
1005955,Müden,Hydro,,Run-of-River,,16.4,1965,RWE Innogy GmbH,Operational,Müden,,2016,,,,,,,52.521937,10.360381,,Open Power System Data,http://data.open-power-system-data.org/,,,,,,,,,,,,Germany,,Open Power System Data
1005975,Neef,Hydro,,Run-of-River,,16.4,1966,RWE Innogy GmbH,Operational,Neef,,2016,,,,,,,50.087362,7.135809,,Open Power System Data,http://data.open-power-system-data.org/,,,,,,,,,,,,Germany,,Open Power System Data
1005978,Niederaichbach,Hydro,,Run-of-River,,16.2,1951,E.ON Kraftwerke GmbH,Operational,Niederaichbach,,2016,,,,,,,48.6039132,12.3023425,,Open Power System Data,http://data.open-power-system-data.org/,,,,,,,,,,,,Germany,,Open Power System Data
1005731,Heimbach,Hydro,,Run-of-River,,16,1905,RWE Innogy GmbH,Operational,Heimbach,,2016,,,,,,,50.628568,6.451776,,Open Power System Data,http://data.open-power-system-data.org/,,,,,,,,,,,,Germany,,Open Power System Data
1005867,Koblenz,Hydro,,Run-of-River,,16,1951,RWE Innogy GmbH,Operational,Koblenz,,2016,,,,,,,50.365855,7.58171,,Open Power System Data,http://data.open-power-system-data.org/,,,,,,,,,,,,Germany,,Open Power System Data
1005592,Bigge,Hydro,,Dam with Reservoir,,15,1965,Lister- und Lennekraftwerke GmbH,Operational,Attendorn,,2016,,,,,,,51.093173,7.86272,,Open Power System Data,http://data.open-power-system-data.org/,,,,,,,,,,,,Germany,,Open Power System Data
1005632,Dingolfing,Hydro,,Run-of-River,,15,1957,E.ON Kraftwerke GmbH,Operational,Dingolfing,,2016,,,,,,,48.63404,12.48369,,Open Power System Data,http://data.open-power-system-data.org/,,,,,,,,,,,,Germany,,Open Power System Data
1005725,Gummering,Hydro,,Run-of-River,,14.8,1957,E.ON Kraftwerke GmbH,Operational,Niederviehbach,,2016,,,,,,,48.622456,12.398037,,Open Power System Data,http://data.open-power-system-data.org/,,,,,,,,,,,,Germany,,Open Power System Data
1006114,Unteropfingen,Hydro,,Run-of-River,,14.2,1991,EnBW Energie Baden-Württemberg AG,Operational,Kirchdorf,,2016,,,,,,,48.0612649,10.1284379,,Open Power System Data,http://data.open-power-system-data.org/,,,,,,,,,,,,Germany,,Open Power System Data
1006044,Schwammenauel,Hydro,,Run-of-River,,14,1938,RWE Innogy GmbH,Operational,Heimbach,,2016,,,,,,,50.628507,6.479111,,Open Power System Data,http://data.open-power-system-data.org/,,,,,,,,,,,,Germany,,Open Power System Data
1006152,Zeltingen,Hydro,,Run-of-River,,13.6,1964,RWE Innogy GmbH,Operational,Zeltingen,,2016,,,,,,,49.951074,7.023166,,Open Power System Data,http://data.open-power-system-data.org/,,,,,,,,,,,,Germany,,Open Power System Data
1005987,Obernach,Hydro,,Run-of-River,,12.8,1955,E.ON Kraftwerke GmbH,Operational,Walchensee,,2016,,,,,,,47.554694,11.291366,,Open Power System Data,http://data.open-power-system-data.org/,,,,,,,,,,,,Germany,,Open Power System Data
1005670,Ettling,Hydro,,Run-of-River,,12.6,1988,E.ON Kraftwerke GmbH,Operational,Wallersorf/Ettling,,2016,,,,,,,48.6960722,12.7977619,,Open Power System Data,http://data.open-power-system-data.org/,,,,,,,,,,,,Germany,,Open Power System Data
1005702,Goldisthal,Hydro,,Pumped Storage,4 units,1052,2003-2004,Vattenfall Europe Generation AG,Operational,Goldisthal,1690.044,2016,,,,,,0.8,50.50975864,11.02087498,,Open Power System Data,http://data.open-power-system-data.org/,,,,,,,,,,,,Germany,,Open Power System Data
1005937,Markersbach,Hydro,,Pumped Storage,6x174.2,1045.2,1980,Vattenfall Europe Generation AG,Operational,Markersbach,890.156,2016,,,,,,0.75,50.51938,12.87976,,Open Power System Data,http://data.open-power-system-data.org/,,,,,,,,,,,,Germany,,Open Power System Data
1005929,Landau,Hydro,,Run-of-River,,12.6,1984,E.ON Kraftwerke GmbH,Operational,Pilsting-Harburg,,2016,,,,,,,48.667862,12.660027,,Open Power System Data,http://data.open-power-system-data.org/,,,,,,,,,,,,Germany,,Open Power System Data
1006002,Pielweichs,Hydro,,Run-of-River,,12.6,1994,E.ON Kraftwerke GmbH,Operational,Plattling,,2016,,,,,,,49.79434,10.1813,,Open Power System Data,http://data.open-power-system-data.org/,,,,,,,,,,,,Germany,,Open Power System Data
1006112,Unterbergen,Hydro,,Run-of-River,,12.4,1983,E.ON Kraftwerke GmbH,Operational,Schmiechen-Unterbergen,,2016,,,,,,,48.237449,10.92718,,Open Power System Data,http://data.open-power-system-data.org/,,,,,,,,,,,,Germany,,Open Power System Data
1006127,Waldeck 2,Hydro,,Pumped Storage,,480,1974,E.ON Kraftwerke GmbH,Operational,Edertal Hemfurth-Edersee,778.277,2016,,,,,,,51.167139,9.046832,,Open Power System Data,http://data.open-power-system-data.org/,,,,,,,,,,,,Germany,,Open Power System Data
1006037,Säckingen,Hydro,,Pumped Storage,,360,1966,Schluchseewerk Aktiengesellschaft,Operational,Bad Säckingen,,2016,,,,,,,47.565416,7.954035,,Open Power System Data,http://data.open-power-system-data.org/,,,,,,,,,,,,Germany,,Open Power System Data
1005828,Hohenwarte,Hydro,,Pumped Storage,8x39.73,377.6,1966,Vattenfall Europe Generation AG,Operational,Hohenwarte,,2016,,,,,,,50.60384898,11.47517681,,Open Power System Data,http://data.open-power-system-data.org/,,,,,,,,,,,,Germany,,Open Power System Data
1005872,Kopswerk I,Hydro,,Pumped Storage,,247,1968,EnBW Energie Baden-Württemberg AG,Operational,Partenen,,2016,,,,,,,46.96845,10.05986,,Open Power System Data,http://data.open-power-system-data.org/,,,,,,,,,,,,Germany,,Open Power System Data
1005956,Mühltal,Hydro,,Run-of-River,,11.2,1924,E.ON Kraftwerke GmbH,Operational,Straßlach,,2016,,,,,,,47.99629724,11.48542787,,Open Power System Data,http://data.open-power-system-data.org/,,,,,,,,,,,,Germany,,Open Power System Data
1005629,Dettingen,Hydro,,Run-of-River,,11,1927,EnBW Energie Baden-Württemberg AG,Operational,Dettingen,,2016,,,,,,,48.527536,9.3488325,,Open Power System Data,http://data.open-power-system-data.org/,,,,,,,,,,,,Germany,,Open Power System Data
1006015,Rain,Hydro,,Run-of-River,,10.9,1955,Rhein-Main-Donau AG,Operational,Rain,,2016,,,,,,,48.692383,10.897786,,Open Power System Data,http://data.open-power-system-data.org/,,,,,,,,,,,,Germany,,Open Power System Data
1006116,UPM Schongau,Hydro,,Run-of-River,,10.5,1959,UPM GmbH,Operational,Schongau,,2016,,,,,,,47.803187,10.904254,,Open Power System Data,http://data.open-power-system-data.org/,,,,,,,,,,,,Germany,,Open Power System Data
1005628,Dessau,Hydro,,Run-of-River,,10.3,1967,E.ON Kraftwerke GmbH,Operational,Burggen,,2016,,,,,,,47.739292,10.825702,,Open Power System Data,http://data.open-power-system-data.org/,,,,,,,,,,,,Germany,,Open Power System Data
1005674,Faimingen,Hydro,,Run-of-River,,10.1,1965,Obere Donau Kraftwerke AG,Operational,Lauingen,,2016,,,,,,,48.558394,10.411764,,Open Power System Data,http://data.open-power-system-data.org/,,,,,,,,,,,,Germany,,Open Power System Data
1006120,Urspring,Hydro,,Run-of-River,,10.1,1966,E.ON Kraftwerke GmbH,Operational,Lechbruck,,2016,,,,,,,47.71598,10.825785,,Open Power System Data,http://data.open-power-system-data.org/,,,,,,,,,,,,Germany,,Open Power System Data
1005827,Höchstädt,Hydro,,Run-of-River,,10,1982,Mittlere Donau Kraftwerke AG,Operational,Höchstädt,,2016,,,,,,,48.603156,10.582724,,Open Power System Data,http://data.open-power-system-data.org/,,,,,,,,,,,,Germany,,Open Power System Data
1006140,Weserkraftwerk Bremen,Hydro,,Run-of-River,,9.9,2012,swb Erzeugung GmbH & Co. KG,Operational,Bremen (Hastedt),,2016,,,,,,,53.061134,8.864937,,Open Power System Data,http://data.open-power-system-data.org/,,,,,,,,,,,,Germany,,Open Power System Data
1005669,Erzhausen,Hydro,,Pumped Storage,,220,1964,Statkraft Markets GmbH,Operational,Kreiensen,131.647,2016,,,,,,0.75,51.89912,9.92452,,Open Power System Data,http://data.open-power-system-data.org/,,,,,,,,,,,,Germany,,Open Power System Data
1006148,Witznau,Hydro,,Pumped Storage,,220,1943,Schluchseewerk Aktiengesellschaft,Operational,Witznau,,2016,,,,,,,47.68791,8.25159,,Open Power System Data,http://data.open-power-system-data.org/,,,,,,,,,,,,Germany,,Open Power System Data
1006006,PSW Langenprozelten,Hydro,,Pumped Storage,,164,1974,Donau-Wasserkraft AG,Operational,Gemünden,,2016,,,,,,,50.05313,9.58137,,Open Power System Data,http://data.open-power-system-data.org/,,,,,,,,,,,,Germany,,Open Power System Data
1005868,Koepchenwerk,Hydro,,Pumped Storage,,153,1989,RWE Power AG,Operational,Herdecke,20.027,2016,,,,,,0.75,51.41048,7.45314,,Open Power System Data,http://data.open-power-system-data.org/,,,,,,,,,,,,Germany,,Open Power System Data
1005896,Kraftwerk Waldshut,Hydro,,Pumped Storage,,150,1951,Schluchseewerk Aktiengesellschaft,Operational,Waldshut-Tiengen,,2016,,,,,,,47.61777,8.1926,,Open Power System Data,http://data.open-power-system-data.org/,,,,,,,,,,,,Germany,,Open Power System Data
1006027,Rheinkraftwerk Iffezheim,Hydro,,Run-of-River,,146,1978-2013,EnBW Energie Baden-Württemberg AG,Operational,Iffezheim,704.631,2016,,,,,,,48.83135,8.11216,,Open Power System Data,http://data.open-power-system-data.org/,,,,,,,,,,,,Germany,,Open Power System Data
1006128,Waldeck1/Bringhausen,Hydro,,Pumped Storage,,143,1931,E.ON Kraftwerke GmbH,Operational,Edertal Hemfurth-Edersee,,2016,,,,,,,51.167139,9.046832,,Open Power System Data,http://data.open-power-system-data.org/,,,,,,,,,,,,Germany,,Open Power System Data
1006009,Pumpspeicherwerk Rönkhausen,Hydro,,Pumped Storage,,138,1969,Mark-E AG,Operational,Finnentrop,,2016,,,,,,,51.22475,7.99281,,Open Power System Data,http://data.open-power-system-data.org/,,,,,,,,,,,,Germany,,Open Power System Data
1005655,Ellgau,Hydro,,Run-of-River,,9.7,1952,Rhein-Main-Donau AG,Operational,Ellgau,,2016,,,,,,,48.596746,10.8789,,Open Power System Data,http://data.open-power-system-data.org/,,,,,,,,,,,,Germany,,Open Power System Data
1006138,Werkskraftwerk Sappi Alfeld 3,Hydro,,Run-of-River,,0.1,1912,Sappi Alfeld GmbH,Operational,Alfeld,,2016,,,,,,,51.98513,9.82246,,Open Power System Data,http://data.open-power-system-data.org/,,,,,,,,,,,,Germany,,Open Power System Data
1005933,Leitzach 1,Hydro,,Pumped Storage,"3 units(2x44, 1x88)",136,1960-1983,Stadtwerke München GmbH,Operational,Vagen,,2016,,,,,,,47.873938,11.87099,,Open Power System Data,http://data.open-power-system-data.org/,,,,,,,,,,,,Germany,,Open Power System Data
1006126,Walchensee,Hydro,,SPP,,124,1924,E.ON Kraftwerke GmbH,Operational,Kochel am See,,2016,,,,,,,47.631354,11.337054,,Open Power System Data,http://data.open-power-system-data.org/,,,,,,,,,,,,Germany,,Open Power System Data
1005688,Geesthacht,Hydro,,Pumped Storage,,119.1,1958,Vattenfall Europe Generation AG,Operational,Geesthacht,,2016,,,,,,,53.42605,10.3359,,Open Power System Data,http://data.open-power-system-data.org/,,,,,,,,,,,,Germany,,Open Power System Data
1005931,Laufenburg,Hydro,,Run-of-River,,104.4,1914,Energiedienst Holding AG,Operational,Laufenburg,,2016,,,,,,,47.555936,8.049404,,Open Power System Data,http://data.open-power-system-data.org/,,,,,,,,,,,,Germany,,Open Power System Data
1005729,Häusern,Hydro,,Pumped Storage,,100,1931,Schluchseewerk Aktiengesellschaft,Operational,Häusern,,2016,,,,,,,47.75459,8.18787,,Open Power System Data,http://data.open-power-system-data.org/,,,,,,,,,,,,Germany,,Open Power System Data
1006008,Pumpspeicherkraftwerk Glems,Hydro,,Pumped Storage,,90,1964,EnBW Energie Baden-Württemberg AG,Operational,Metzingen-Glems,,2016,,,,,,0.74,48.50499,9.28692,,Open Power System Data,http://data.open-power-system-data.org/,,,,,,,,,,,,Germany,,Open Power System Data
1006070,Töging,Hydro,Oil,Run-of-River,,85.3,1924,VERBUND-Innkraftwerke GmbH,Operational,Töging,,2016,,,,,,,48.2518176,12.5873078,,Open Power System Data,http://data.open-power-system-data.org/,,,,,,,,,,,,Germany,,Open Power System Data
1005605,Bleiloch,Hydro,,Pumped Storage,,79.8,1932,Vattenfall Europe Generation AG,Operational,Schleiz,,2016,,,,,,,50.52438482,11.71438694,,Open Power System Data,http://data.open-power-system-data.org/,,,,,,,,,,,,Germany,,Open Power System Data
1006135,Wendefurth,Hydro,,Pumped Storage,,79.7,1967-1968,Vattenfall Europe Generation AG,Operational,Wendefurth,,2016,,,,,,0.73,51.74223,10.91879,,Open Power System Data,http://data.open-power-system-data.org/,,,,,,,,,,,,Germany,,Open Power System Data
1006011,RADAG,Hydro,,Run-of-River,,79.5,1933,Rheinkraftwerk Albbruck- Dogern AG,Operational,Albbruck,,2016,,,,,,,47.58629,8.13207,,Open Power System Data,http://data.open-power-system-data.org/,,,,,,,,,,,,Germany,,Open Power System Data
1005851,Jochenstein,Hydro,,Run-of-River,,66,1955,Innwerk AG,Operational,Griesbach,,2016,,,,,,,48.5195636,13.7085052,,Open Power System Data,http://data.open-power-system-data.org/,,,,,,,,,,,,Germany,,Open Power System Data
1005853,Kachlet,Hydro,,Run-of-River,,53.7,1927,Rhein-Main-Donau AG,Operational,Passau,,2016,,,,,,,48.5797112,13.4082738,,Open Power System Data,http://data.open-power-system-data.org/,,,,,,,,,,,,Germany,,Open Power System Data
1005618,Braunau-Simbach,Hydro,,Run-of-River,,50,1953,Innwerk AG,Operational,Kirchdorf,,2016,,,,,,,48.063827,10.128443,,Open Power System Data,http://data.open-power-system-data.org/,,,,,,,,,,,,Germany,,Open Power System Data
1006039,Schärding-Neuhaus,Hydro,,Run-of-River,,48,1963,Innwerk AG,Operational,St. Florian am Inn,,2016,,,,,,,48.4356192,13.4415027,,Open Power System Data,http://data.open-power-system-data.org/,,,,,,,,,,,,Germany,,Open Power System Data
1005913,KW Rheinfelden,Hydro,,Run-of-River,,46.7,2010,Energiedienst AG,Operational,Rheinfelden,,2016,,,,,,,47.56990573,7.810113464,,Open Power System Data,http://data.open-power-system-data.org/,,,,,,,,,,,,Germany,,Open Power System Data
1006034,Roßhaupten,Hydro,,Dam with Reservoir,,45.5,1954,E.ON Kraftwerke GmbH,Operational,Roßhaupten,,2016,,,,,,,47.651451,10.735525,,Open Power System Data,http://data.open-power-system-data.org/,,,,,,,,,,,,Germany,,Open Power System Data
1005619,Braunkohlekraftwerk Lippendorf,lignite coal,,Sub-critical Thermal,,875,1999,EnBW Energie Baden-Württemberg AG,Operational,Böhlen,,2016,,,,,,0.42,51.182122,12.373287,,Open Power System Data,http://data.open-power-system-data.org/,,,,,,,,,,,,Germany,,Open Power System Data
1005935,Lippendorf,lignite coal,,Sub-critical Thermal,,875,2000,Vattenfall Europe Generation AG,Operational,Böhlen,10816.19,2016,,,,,,0.41,51.182122,12.373287,,Open Power System Data,http://data.open-power-system-data.org/,ENTSOE (For Generation only),https://transparency.entsoe.eu/generation/r2/installedCapacityPerProductionUnit/show,,,,,,,,,,Germany,,Open Power System Data
1005616,Boxberg,lignite coal,,Sub-critical Thermal,,640,2012,Vattenfall Europe Generation AG,Operational,Boxberg,,2016,,,,,,0.437,51.41918,14.5698,,Open Power System Data,http://data.open-power-system-data.org/,,,,,,,,,,,,Germany,,Open Power System Data
1005616,Boxberg,lignite coal,,Sub-critical Thermal,"2x465, 1x857",1787,1979-2000,Vattenfall Europe Generation AG,Operational,Boxberg,17874.16,2016,,,,,,0.386,51.41626317,14.56194878,,Open Power System Data,http://data.open-power-system-data.org/,ENTSOE (For Generation only),https://transparency.entsoe.eu/generation/r2/installedCapacityPerProductionUnit/show,,,,,,,,,,Germany,,Open Power System Data
1005683,Frimmersdorf,lignite coal,,Sub-critical Thermal,"2 units (278, 284)",562,1966-1970,RWE Power AG,Operational,Grevenbroich-Frimmersdorf,3519.707,2016,,,,,,,51.05744518,6.577080395,,Open Power System Data,http://data.open-power-system-data.org/,ENTSOE (For Generation only),https://transparency.entsoe.eu/generation/r2/installedCapacityPerProductionUnit/show,,,,,,,,,,Germany,,Open Power System Data
1005623,Buschhaus,lignite coal,,Sub-critical Thermal,,352,1985,Helmstedter Revier GmbH,Operational,Helmstedt,2102.622,2016,,,,,,0.36,52.17237156,10.97682873,,Open Power System Data,http://data.open-power-system-data.org/,ENTSOE (For Generation only),https://transparency.entsoe.eu/generation/r2/installedCapacityPerProductionUnit/show,,,,,,,,,,Germany,,Open Power System Data
1005864,Klingenberg,lignite coal,,Sub-critical Thermal,,164,1981,Vattenfall Europe Wärme Aktiengesellschaft,Operational,Berlin,510.519,2016,,,,,,,52.48891639,13.49696159,,Open Power System Data,http://data.open-power-system-data.org/,ENTSOE (For Generation only),https://transparency.entsoe.eu/generation/r2/installedCapacityPerProductionUnit/show,,,,,,,,,,Germany,,Open Power System Data
1005682,Frechen/Wachtberg,lignite coal,,Sub-critical Thermal,,118,1959,RWE Power AG,Operational,Frechen,562.35,2016,,,,,,,50.8976,6.793099,,Open Power System Data,http://data.open-power-system-data.org/,ENTSOE (For Generation only),https://transparency.entsoe.eu/generation/r2/installedCapacityPerProductionUnit/show,,,,,,,,,,Germany,,Open Power System Data
1005800,HKW Merkenich (Coal),lignite coal,,Sub-critical Thermal,,75.3,2010,RheinEnergie AG,Operational,Köln,,2016,,,,,,,51.01781,6.96435,,Open Power System Data,http://data.open-power-system-data.org/,,,,,,,,,,,,Germany,,Open Power System Data
1005779,HKW Cottbus,lignite coal,,Sub-critical Thermal,,74,1999,HKW Heizkraftwerksgesellschaft Cottbus mbH,Operational,Cottbus,,2016,,,,,,0.4,51.76017,14.37004,,Open Power System Data,http://data.open-power-system-data.org/,,,,,,,,,,,,Germany,,Open Power System Data
1005631,Deuben,lignite coal,,Sub-critical Thermal,,67,1936,Mitteldeutsche Braunkohlengesellschaft mbH,Operational,Teuchern,,2016,,,,,,,51.11187,12.07617,,Open Power System Data,http://data.open-power-system-data.org/,,,,,,,,,,,,Germany,,Open Power System Data
1005777,HKW Chemnitz  Nord II,lignite coal,,Sub-critical Thermal,"2 units (56.8, 90.8)",56.8,1988-1990,eins energie in sachsen GmbH & Co. KG,Operational,Chemnitz,,2016,,,,,,,50.856981,12.923096,,Open Power System Data,http://data.open-power-system-data.org/,,,,,,,,,,,,Germany,,Open Power System Data
1006123,Ville/Berrenrath,lignite coal,,Sub-critical Thermal,,52,1991,RWE Power AG,Operational,Hürth,,2016,,,,,,,50.86138,6.84066,,Open Power System Data,http://data.open-power-system-data.org/,,,,,,,,,,,,Germany,,Open Power System Data
1005705,Grubenheizkraftwerk,lignite coal,,Sub-critical Thermal,,49,1979,ROMONTA GmbH,Operational,Seegebiet Mansfelder Land,,2016,,,,,,,51.462749,11.714028,,Open Power System Data,http://data.open-power-system-data.org/,,,,,,,,,,,,Germany,,Open Power System Data
1005869,Kohlekraftwerk,lignite coal,,Sub-critical Thermal,,14.4,2010,Smurfit Kappa Zülpich Papier GmbH,Operational,Zülpich,,2016,,,,,,,50.7055,6.65362,,Open Power System Data,http://data.open-power-system-data.org/,,,,,,,,,,,,Germany,,Open Power System Data
1005874,Kraftwerk,lignite coal,,Sub-critical Thermal,,10,1995,Martinswerk GmbH,Operational,Bergheim,,2016,,,,,,,50.94564,6.66503,,Open Power System Data,http://data.open-power-system-data.org/,,,,,,,,,,,,Germany,,Open Power System Data
1005860,Kessel 4,lignite coal,,Sub-critical Thermal,,9.3,1983,"Papierfabrik Schoellershammer 
Heinrich August Schoeller Söhne GmbH & Co. KG",Operational,Düren,,2016,,,,,,,50.77701,6.48605,,Open Power System Data,http://data.open-power-system-data.org/,,,,,,,,,,,,Germany,,Open Power System Data
1005906,KW Jänschwalde,lignite coal,,Sub-critical Thermal,6x465,2790,1981-1987,Vattenfall Europe Generation AG,Operational,Peitz,19614.47,2016,,,,,,0.375,51.83444099,14.45903778,,Open Power System Data,http://data.open-power-system-data.org/,ENTSOE (For Generation only),https://transparency.entsoe.eu/generation/r2/installedCapacityPerProductionUnit/show,,,,,,,,,,Germany,,Open Power System Data
1005614,BoA 2,lignite coal,,Sub-critical Thermal,2x1050,2100,2012,RWE Power AG,Operational,Grevenbroich,,2016,,,,,,0.43,51.0365,6.61332,,Open Power System Data,http://data.open-power-system-data.org/,,,,,,,,,,,,Germany,,Open Power System Data
1006134,Weisweiler,lignite coal,,Sub-critical Thermal,"4 units(2x592, 1x304, 1x312)",1800,1965-1975,RWE Power AG,Operational,Eschweiler-Weisweiler,14337.11,2016,,,,,,0.346,50.839167,6.321111,,Open Power System Data,http://data.open-power-system-data.org/,ENTSOE (For Generation only),https://transparency.entsoe.eu/generation/r2/installedCapacityPerProductionUnit/show,,,,,,,,,,Germany,,Open Power System Data
1005812,HKW Schwarza,Natural Gas,,OCGT,,26.5,1936-2008,Energie- und Medienversorgung Schwarza GmbH,Operational,Rudolstadt,,2016,,,,,,,50.686928,11.329303,,Open Power System Data,http://data.open-power-system-data.org/,,,,,,,,,,,,Germany,,Open Power System Data
1005834,IHKW Heidenheim,Natural Gas,,Sub-critical Thermal,"2 units (15.4, 11.1)",26.5,1983-2000,Voith Dienstleistungen und Grundstücks GmbH & Co. KG,Operational,Heidenheim,,2016,,,,,,,48.670061,10.150584,,Open Power System Data,http://data.open-power-system-data.org/,,,,,,,,,,,,Germany,,Open Power System Data
1005638,Dortmund,Natural Gas,,Sub-critical Thermal,,26,2004,RWE Generation SE,Operational,Dortmund,,2016,,,,,,,51.51973,7.47697,,Open Power System Data,http://data.open-power-system-data.org/,,,,,,,,,,,,Germany,,Open Power System Data
1005925,KWK-Anlage Krefeld DT,Natural Gas,,Sub-critical Thermal,,25.8,2004,Cargill Deutschland GmbH,Operational,Krefeld,,2016,,,,,,,51.339183,6.664238,,Open Power System Data,http://data.open-power-system-data.org/,,,,,,,,,,,,Germany,,Open Power System Data
1005824,HKW-Nord,Natural Gas,,OCGT,,25,1965,Braunschweiger Versorgungs-AG & Co. KG,Operational,Braunschweig,,2016,,,,,,,52.278611,10.514722,,Open Power System Data,http://data.open-power-system-data.org/,,,,,,,,,,,,Germany,,Open Power System Data
1005772,HKW 2,Natural Gas,,Sub-critical Thermal,,24.5,1995,Energieversorgung Oberhausen AG,Operational,Oberhausen,,2016,,,,,,,51.470671,6.861598,,Open Power System Data,http://data.open-power-system-data.org/,,,,,,,,,,,,Germany,,Open Power System Data
1005730,HBB,Natural Gas,,Sub-critical Thermal,,24,2001,HBB Heizkraftwerk Bauernfeind Betreibergesellschaft mbh,Operational,Raubling,,2016,,,,,,,47.79598,12.11927,,Open Power System Data,http://data.open-power-system-data.org/,,,,,,,,,,,,Germany,,Open Power System Data
1005846,INEOS Kraftwerk,Natural Gas,,Sub-critical Thermal,,24,1995,INEOS Solvents Germany GmbH,Operational,Moers,,2016,,,,,,,51.46935,6.64358,,Open Power System Data,http://data.open-power-system-data.org/,,,,,,,,,,,,Germany,,Open Power System Data
1005971,Natural Gasmotore,Natural Gas,,CB,"3 units (9.2, 9.8, 4.3)",23.3,2011,Stadtwerke Rosenheim GmbH & Co. KG,Operational,Rosenheim,,2016,,,,,,0.487,47.856134,12.134085,,Open Power System Data,http://data.open-power-system-data.org/,,,,,,,,,,,,Germany,,Open Power System Data
1005770,HKW 1,Natural Gas,,Sub-critical Thermal,,23.1,1972,Energieversorgung Oberhausen AG,Operational,Oberhausen,,2016,,,,,,,51.470671,6.861598,,Open Power System Data,http://data.open-power-system-data.org/,,,,,,,,,,,,Germany,,Open Power System Data
1005813,HKW Schwerin Lankow,Natural Gas,,Sub-critical Thermal,,23,1994,Energieversorgung Schwerin GmbH & Co. Erzeugung KG,Operational,Schwerin,,2016,,,,,,,53.653917,11.372972,,Open Power System Data,http://data.open-power-system-data.org/,,,,,,,,,,,,Germany,,Open Power System Data
1005732,Heizkraftwerk 1,Natural Gas,,Sub-critical Thermal,,22.5,1992,ADM Hamburg Aktiengesellschaft,Operational,Hamburg,,2016,,,,,,,53.517684,9.950793,,Open Power System Data,http://data.open-power-system-data.org/,,,,,,,,,,,,Germany,,Open Power System Data
1005820,HKW Wiesengrund,Natural Gas,,Sub-critical Thermal,,22.1,1993,ENAG/MainNatural Gas Energieanlagen GmbH,Operational,Eisenach,,2016,,,,,,,50.9815566,10.2905599,,Open Power System Data,http://data.open-power-system-data.org/,,,,,,,,,,,,Germany,,Open Power System Data
1005663,Energiezentrum Mohn Media,Natural Gas,,Sub-critical Thermal,,22,1994,Mohn Media Mohndruck GmbH,Operational,Gütersloh,,2016,,,,,,,51.907326,8.408835,,Open Power System Data,http://data.open-power-system-data.org/,,,,,,,,,,,,Germany,,Open Power System Data
1005759,Heizkraftwerk Stendal,Natural Gas,,Sub-critical Thermal,,22,1994,VASA Kraftwerke-Pool GmbH & Co. KG,Operational,Stendal,,2016,,,,,,,52.6087132,11.8324507,,Open Power System Data,http://data.open-power-system-data.org/,,,,,,,,,,,,Germany,,Open Power System Data
1005615,Bochum,Natural Gas,,Sub-critical Thermal,,20.7,2004,RWE Generation SE,Operational,Bochum,,2016,,,,,,,51.48333333,7.216666667,,Open Power System Data,http://data.open-power-system-data.org/,,,,,,,,,,,,Germany,,Open Power System Data
1006137,Werkskraftwerk Sappi Alfeld 2,Natural Gas,,Sub-critical Thermal,,20,1947,Sappi Alfeld GmbH,Operational,Alfeld,,2016,,,,,,,51.98513,9.82246,,Open Power System Data,http://data.open-power-system-data.org/,,,,,,,,,,,,Germany,,Open Power System Data
1006047,Sigmundshall,Natural Gas,,Sub-critical Thermal,,19,1974,K+S AG,Operational,Wunstorf,,2016,,,,,,,52.41852,9.36815,,Open Power System Data,http://data.open-power-system-data.org/,,,,,,,,,,,,Germany,,Open Power System Data
1005684,FS-Karton,Natural Gas,,Sub-critical Thermal,,18.9,1992,FS-Karton GmbH,Operational,Neuss,,2016,,,,,,,51.2171,6.69654,,Open Power System Data,http://data.open-power-system-data.org/,,,,,,,,,,,,Germany,,Open Power System Data
1005780,HKW Dresden-Nossener Brücke,Natural Gas,,CCGT,,263,1995,DREWAG Stadtwerke Dresden GmbH,Operational,Dresden,1222.775,2016,,,,,,,51.042119,13.708597,,Open Power System Data,http://data.open-power-system-data.org/,ENTSOE (For Generation only),https://transparency.entsoe.eu/generation/r2/installedCapacityPerProductionUnit/show,,,,,,,,,,Germany,,Open Power System Data
1005788,HKW Göttingen,Natural Gas,,Sub-critical Thermal,,18.8,1998,Georg-August-Universität Göttingen Stiftung Ã–ffentlichen Rechts,Operational,Göttingen,,2016,,,,,,,51.55337,9.93374,,Open Power System Data,http://data.open-power-system-data.org/,,,,,,,,,,,,Germany,,Open Power System Data
1005789,HKW Halle Trotha,Natural Gas,,CCGT,"2x97, 1x54",254,2005-2013,EVH GmbH,Operational,Halle,,2016,,,,,,0.525,51.48096,11.96427,,Open Power System Data,http://data.open-power-system-data.org/,,,,,,,,,,,,Germany,,Open Power System Data
1005708,Natural Gas Turbine #7,Natural Gas,,OCGT,4x4.65,18.6,1993-1995,Prinovis Ltd. & Co. KG,Operational,Nürnberg,,2016,,,,,,,49.40593,11.13286,,Open Power System Data,http://data.open-power-system-data.org/,,,,,,,,,,,,Germany,,Open Power System Data
1005793,HKW III/B,Natural Gas,,CCGT,,234,2005,Stadtwerke Duisburg AG,Operational,Duisburg,223.406,2016,,,,,,,51.390662,6.747783,,Open Power System Data,http://data.open-power-system-data.org/,ENTSOE (For Generation only),https://transparency.entsoe.eu/generation/r2/installedCapacityPerProductionUnit/show,,,,,,,,,,Germany,,Open Power System Data
1005793,HKW III/A,Natural Gas,,Sub-critical Thermal,,40,2002,Stadtwerke Duisburg AG,Operational,Duisburg,,2016,,,,,,,51.390662,6.747783,,Open Power System Data,http://data.open-power-system-data.org/,,,,,,,,,,,,Germany,,Open Power System Data
1005762,Heizkraftwerk zur Papierfabrik,Natural Gas,,Sub-critical Thermal,,18.1,1995,Delkeskamp Verpackungswerke GmbH,Operational,Nortrup,,2016,,,,,,,52.61796,7.86188,,Open Power System Data,http://data.open-power-system-data.org/,,,,,,,,,,,,Germany,,Open Power System Data
1005698,GKL,Natural Gas,,CCGT,,230,1998-2013,Stadtwerke Hannover AG,Operational,Hannover,134.167,2016,,,,,,0.55,52.372917,9.714194,,Open Power System Data,http://data.open-power-system-data.org/,ENTSOE (For Generation only),https://transparency.entsoe.eu/generation/r2/installedCapacityPerProductionUnit/show,,,,,,,,,,Germany,,Open Power System Data
1005735,Heizkraftwerk 4,Natural Gas,,Sub-critical Thermal,,18,1976,Stadtwerke Augsburg Energie GmbH,Operational,Augsburg,,2016,,,,,,,48.37509,10.90277,,Open Power System Data,http://data.open-power-system-data.org/,,,,,,,,,,,,Germany,,Open Power System Data
1005746,Heizkraftwerk Hagen-Kabel,Natural Gas,,CCGT,,230,1980,Mark-E AG,Operational,Hagen,179.924,2016,,,,,,,51.41103,7.49171,,Open Power System Data,http://data.open-power-system-data.org/,ENTSOE (For Generation only),https://transparency.entsoe.eu/generation/r2/installedCapacityPerProductionUnit/show,,,,,,,,,,Germany,,Open Power System Data
1005924,KWK-Anlage Barby,Natural Gas,,Sub-critical Thermal,,18,1993,Cargill Deutschland GmbH,Operational,Barby,,2016,,,,,,,51.983192,11.87656,,Open Power System Data,http://data.open-power-system-data.org/,,,,,,,,,,,,Germany,,Open Power System Data
1005706,Natural Gas Turbine #6,Natural Gas,,OCGT,"3 units ( nat gas 64.7, 66.7, and oil 86)",217.8,1974-1977,Stadtwerke Düsseldorf AG,Operational,Düsseldorf,,2016,,,,,,,51.22116,6.73193,,Open Power System Data,http://data.open-power-system-data.org/,,,,,,,,,,,,Germany,,Open Power System Data
1005724,GuD-Kraftwerk,Natural Gas,,CCGT,,17.2,2005,Energie- und Medienversorgung Sandhofer Straße GmbH & Co. KG,Operational,Mannheim,,2016,,,,,,,49.53071,8.47088,,Open Power System Data,http://data.open-power-system-data.org/,,,,,,,,,,,,Germany,,Open Power System Data
1005909,KW Kirchlengern,Natural Gas,,CCGT,,201.5,1980,Energieservice Westfalen Weser GmbH,Operational,Kirchlengern,,2016,,,,,,,52.19507,8.6482,,Open Power System Data,http://data.open-power-system-data.org/,,,,,,,,,,,,Germany,,Open Power System Data
1005794,HKW Jena,Natural Gas,,CCGT,,182,1996,Thüringer Energie AG,Operational,Jena,,2016,,,,,,,50.896881,11.585703,,Open Power System Data,http://data.open-power-system-data.org/,,,,,,,,,,,,Germany,,Open Power System Data
1005588,BHKW H.120,Natural Gas,,Sub-critical Thermal,,16.9,2012,Daimler AG,Operational,Düsseldorf,,2016,,,,,,,51.25454,6.78648,,Open Power System Data,http://data.open-power-system-data.org/,,,,,,,,,,,,Germany,,Open Power System Data
1005741,Heizkraftwerk Evonik Rheinfelden,Natural Gas,,Sub-critical Thermal,,16,1980,Evonik Degussa GmbH,Operational,Rheinfelden,,2016,,,,,,,47.570794,7.807192,,Open Power System Data,http://data.open-power-system-data.org/,,,,,,,,,,,,Germany,,Open Power System Data
1005639,Dow Stade,Natural Gas,,CCGT,,173,2014,Dow Deutschland Anlagengesellschaft mbH,Operational,Stade,,2016,,,,,,,53.6519197,9.5078665,,Open Power System Data,http://data.open-power-system-data.org/,,,,,,,,,,,,Germany,,Open Power System Data
1005798,HKW Merheim,Natural Gas,,CCGT,,15.8,2001,RheinEnergie AG,Operational,Köln,,2016,,,,,,,50.94308239,7.085239192,,Open Power System Data,http://data.open-power-system-data.org/,,,,,,,,,,,,Germany,,Open Power System Data
1005751,Heizkraftwerk Leipzig-Nord,Natural Gas,,CCGT,,167,1996,Stadtwerke Leipzig GmbH,Operational,Leipzig,,2016,,,,,,,51.35119,12.37843,,Open Power System Data,http://data.open-power-system-data.org/,,,,,,,,,,,,Germany,,Open Power System Data
1005799,HKW Merkenich,Natural Gas,,Sub-critical Thermal,,15.5,1965,RheinEnergie AG,Operational,Köln,,2016,,,,,,0.53,51.017899,6.964045,,Open Power System Data,http://data.open-power-system-data.org/,,,,,,,,,,,,Germany,,Open Power System Data
1005862,Kirchmöser,Natural Gas,,CCGT,,160,1994,E.ON Kraftwerke GmbH,Operational,Brandenburg,,2016,,,,,,,52.394167,12.418056,,Open Power System Data,http://data.open-power-system-data.org/,,,,,,,,,,,,Germany,,Open Power System Data
1005861,Kesselhaus Zuckerfabrik,Natural Gas,,Sub-critical Thermal,,15.1,1993,Suiker Unie GmbH,Operational,Anklam,,2016,,,,,,,53.85625,13.7101,,Open Power System Data,http://data.open-power-system-data.org/,,,,,,,,,,,,Germany,,Open Power System Data
1005733,Heizkraftwerk 2,Natural Gas,,CCGT,"2 units (86, 66)",152,1989-2003,Infraserv GmbH & Co. Höchst KG,Operational,Industriepark Höchst,,2016,,,,,,,50.09178,8.53105,,Open Power System Data,http://data.open-power-system-data.org/,,,,,,,,,,,,Germany,,Open Power System Data
1005574,Ahrensfelde,Natural Gas,,OCGT,4x37.5,150,1990,Vattenfall Europe Generation AG,Operational,Ahrensfelde,,2016,,,,,,0.31,52.58950001,13.5586524,,Open Power System Data,http://data.open-power-system-data.org/,,,,,,,,,,,,Germany,,Open Power System Data
1005810,HKW Sandreuth,Natural Gas,,CCGT,2x75,150,2005,N-ERGIE AG,Operational,Nürnberg,,2016,,,,,,,49.438611,11.060556,,Open Power System Data,http://data.open-power-system-data.org/,,,,,,,,,,,,Germany,,Open Power System Data
1005926,KWK-Anlage Krefeld VM,Natural Gas,,CB,,14,2004,Cargill Deutschland GmbH,Operational,Krefeld,,2016,,,,,,,51.339183,6.664238,,Open Power System Data,http://data.open-power-system-data.org/,,,,,,,,,,,,Germany,,Open Power System Data
1005744,Heizkraftwerk Gera-Nord,Natural Gas,,Sub-critical Thermal,2x74,148,1996,Energieversorgung Gera GmbH,Operational,Gera,,2016,,,,,,,50.9076,12.06102,,Open Power System Data,http://data.open-power-system-data.org/,,,,,,,,,,,,Germany,,Open Power System Data
1005954,"MT, Düren",Natural Gas,,Sub-critical Thermal,,14,2011,Metsä Tissue GmbH Werk Düren,Operational,Düren,,2016,,,,,,,50.77284,6.49003,,Open Power System Data,http://data.open-power-system-data.org/,,,,,,,,,,,,Germany,,Open Power System Data
1005884,Kraftwerk III,Natural Gas,,CCGT,"2 units (61, 78)",139,1973-1974,Evonik Degussa GmbH,Operational,Marl,,2016,,,,,,,51.68037,7.09688,,Open Power System Data,http://data.open-power-system-data.org/,,,,,,,,,,,,Germany,,Open Power System Data
1005652,Egger Kraftwerk Briilon 2,Natural Gas,,OCGT,,13.5,1996,Egger Kraftwerk Brilon GmbH,Operational,Brilon,,2016,,,,,,,51.40845951,8.599935409,,Open Power System Data,http://data.open-power-system-data.org/,,,,,,,,,,,,Germany,,Open Power System Data
1005822,HKW-Mitte,Natural Gas,,CCGT,"3 units (20, 43.3, 74)",137.3,1971-2010,Braunschweiger Versorgungs-AG & Co. KG,Operational,Braunschweig,,2016,,,,,,,52.278611,10.514722,,Open Power System Data,http://data.open-power-system-data.org/,,,,,,,,,,,,Germany,,Open Power System Data
1005776,HKW Bohrhügel,Natural Gas,,Sub-critical Thermal,,13.5,1995,Stadtwerke Suhl/Zella-Mehlis GmbH,Operational,Suhl,,2016,,,,,,,50.6315,10.69866,,Open Power System Data,http://data.open-power-system-data.org/,,,,,,,,,,,,Germany,,Open Power System Data
1005839,ILK-GuD,Natural Gas,,CCGT,"5 units (2x35, 1x37, 1x8.7, 1x20)",135.7,1994,InfraLeuna GmbH,Operational,Leuna,,2016,,,,,,,51.29976,12.0193,,Open Power System Data,http://data.open-power-system-data.org/,,,,,,,,,,,,Germany,,Open Power System Data
1005927,KWKK Heidelberg,Natural Gas,,Sub-critical Thermal,,13.5,2002,RWE Energiedienstleistungen GmbH,Operational,Heidelberg,,2016,,,,,,,49.42158,8.67284,,Open Power System Data,http://data.open-power-system-data.org/,,,,,,,,,,,,Germany,,Open Power System Data
1005723,GuD-Ikw Staßfurt,Natural Gas,,CCGT,,132,1996,KWG-Kraftwerksgesellschaft Staßfurt mbH,Operational,Staßfurt,,2016,,,,,,,51.865527,11.573813,,Open Power System Data,http://data.open-power-system-data.org/,,,,,,,,,,,,Germany,,Open Power System Data
1006061,STW,Natural Gas,,Sub-critical Thermal,,13.5,2007,Schoeller Technocell GmbH & Co. KG,Operational,Weißenborn,,2016,,,,,,,50.87413,13.39436,,Open Power System Data,http://data.open-power-system-data.org/,,,,,,,,,,,,Germany,,Open Power System Data
1006063,Süd DT60,Natural Gas,,CCGT,,127.6,2004,SWM Services GmbH,Operational,München,,2016,,,,,,,48.1351253,11.5819806,,Open Power System Data,http://data.open-power-system-data.org/,,,,,,,,,,,,Germany,,Open Power System Data
1005590,BHKW Obere Viehweide,Natural Gas,,Sub-critical Thermal,,13.4,2000,Stadtwerke Tübingen GmbH,Operational,Tübingen,,2016,,,,,,,48.510855,9.071463,,Open Power System Data,http://data.open-power-system-data.org/,,,,,,,,,,,,Germany,,Open Power System Data
1005718,GuD Tiefstack,Natural Gas,,CCGT,,127,2009,Vattenfall Europe Wärme Aktiengesellschaft,Operational,Hamburg,,2016,,,,,,,53.52672755,10.06583691,,Open Power System Data,http://data.open-power-system-data.org/,,,,,,,,,,,,Germany,,Open Power System Data
1005695,GHD,Natural Gas,,OCGT,2x6.7,13.4,1998,GHD Bayernwerk Natur GmbH & Co. KG,Operational,Dingolfing,,2016,,,,,,,48.640307,12.463436,,Open Power System Data,http://data.open-power-system-data.org/,,,,,,,,,,,,Germany,,Open Power System Data
1006064,Süd GT 61,Natural Gas,,CCGT,,124.9,2004,SWM Services GmbH,Operational,München,,2016,,,,,,,48.1351253,11.5819806,,Open Power System Data,http://data.open-power-system-data.org/,,,,,,,,,,,,Germany,,Open Power System Data
1006064,Süd GT 62,Natural Gas,,CCGT,,123.9,2004,SWM Services GmbH,Operational,München,,2016,,,,,,,48.1351253,11.5819806,,Open Power System Data,http://data.open-power-system-data.org/,,,,,,,,,,,,Germany,,Open Power System Data
1006064,Süd GT2,Natural Gas,,CCGT,,97.9,1980,SWM Services GmbH,Operational,München,,2016,,,,,,,48.1351253,11.5819806,,Open Power System Data,http://data.open-power-system-data.org/,,,,,,,,,,,,Germany,,Open Power System Data
1006064,Süd GT3,Natural Gas,,CCGT,,97.9,1980,SWM Services GmbH,Operational,München,,2016,,,,,,,48.1351253,11.5819806,,Open Power System Data,http://data.open-power-system-data.org/,,,,,,,,,,,,Germany,,Open Power System Data
1005717,GuD Schwarzheide,Natural Gas,,CCGT,,122,1994,BASF Schwarzheide GmbH,Operational,Schwarzheide,,2016,,,,,,,51.47617,13.8891,,Open Power System Data,http://data.open-power-system-data.org/,,,,,,,,,,,,Germany,,Open Power System Data
1005586,BHKW,Natural Gas,,Sub-critical Thermal,,13,2013,Daimler AG,Operational,Woerth,,2016,,,,,,,49.047474,8.281602,,Open Power System Data,http://data.open-power-system-data.org/,,,,,,,,,,,,Germany,,Open Power System Data
1005763,Heizkraftwerke an der Friedensbrücke,Natural Gas,,CCGT,"4 units (23, 25, 29.5, 44.5)",122,1971-2009,Heizkraftwerk Würzburg GmbH,Operational,Würzburg,,2016,,,,,,0.4,49.800041,9.923136,,Open Power System Data,http://data.open-power-system-data.org/,,,,,,,,,,,,Germany,,Open Power System Data
1005720,GUD-Anlage DREWSEN,Natural Gas,,CCGT,,13,2000,DREWSEN SPEZIALPAPIERE GmbH & Co.KG,Operational,Lachendorf,,2016,,,,,,,52.623451,10.245655,,Open Power System Data,http://data.open-power-system-data.org/,,,,,,,,,,,,Germany,,Open Power System Data
1005721,GuD-Anlage Rüsselsheim,Natural Gas,,CCGT,,112.1,1999,Adam Opel AG,Operational,Rüsselheim,,2016,,,,,,,49.99204,8.41411,,Open Power System Data,http://data.open-power-system-data.org/,,,,,,,,,,,,Germany,,Open Power System Data
1006146,Wintershall,Natural Gas,,CCGT,,109.5,1967,K+S AG,Operational,Heringen,,2016,,,,,,,50.89401,9.99724,,Open Power System Data,http://data.open-power-system-data.org/,,,,,,,,,,,,Germany,,Open Power System Data
1005825,HKW-West,Natural Gas,,Sub-critical Thermal,,12.8,2002,Stadtwerke Lemgo GmbH,Operational,Lemgo,,2016,,,,,,,52.026244,8.866597,,Open Power System Data,http://data.open-power-system-data.org/,,,,,,,,,,,,Germany,,Open Power System Data
1005852,K&N PFK AG EV,Natural Gas,,CCGT,,12.75,1993,Kübler & Niethammer Papierfabrik Kriebstein AG,Operational,Kriebstein,,2016,,,,,,,51.05135,13.01661,,Open Power System Data,http://data.open-power-system-data.org/,,,,,,,,,,,,Germany,,Open Power System Data
