Power Plant ID,Name,Fuel,Secondary Fuel,Generator Technology,Units,Capacity (MW),Commissioning Date,Owner,Operational Status,Location,Annual Generation (GWh),Year of Data,Cooling Technology,Cooling Source,Fuel Consumption (g/kWh),CO2 Annual Reported,CO2 Specific Emissions (tCO2/MWh),Efficiency,Latitude,Longitude,Other,Source,URL,Source 2,URL 2,Peak Load (MW),Load Factor,Capacity Factor,Availability,Grid Connection (kV),Grid Balancing Area,Address,Municipality,Postal Code,Country,Natural Language,Geolocation Source
1023106,Guelbs El Rhein,Oil,,,,66.6,,,Operational,,,,,,,,,,22.75000000000,-12.06666670000,,African Development Bank Group,http://powerafrica.opendataforafrica.org,EcoRex,http://www.ecowrex.org/resources/energy_generators?title_field_value=&&&&&items_per_page=20&page=5,,,,,,,,,,Mauritania,,Power Africa
1023107,Nouadhibou,Natural Gas,,,,120,,,Operational,,,,,,,,,,20.90000000000,-17.06000000000,,African Development Bank Group,http://powerafrica.opendataforafrica.org,EcoRex,http://www.ecowrex.org/resources/energy_generators?title_field_value=&&&&&items_per_page=20&page=5,,,,,,,,,,Mauritania,,Power Africa
1023108,Nouakchott (Solar),Solar,,,,30,,,Operational,,,,,,,,,,18.152807,-15.984194,,African Development Bank Group,http://powerafrica.opendataforafrica.org,EcoRex,http://www.ecowrex.org/resources/energy_generators?title_field_value=&&&&&items_per_page=20&page=5,,,,,,,,,,Mauritania,,Power Africa
1023109,Nouakchott (Thermal),Oil,18.152807,,,51.804,,,Operational,,,,,,,,,,18.152807,-15.984194,,African Development Bank Group,http://powerafrica.opendataforafrica.org,EcoRex,http://www.ecowrex.org/resources/energy_generators?title_field_value=&&&&&items_per_page=20&page=5,,,,,,,-15.984194,,,Mauritania,,Power Africa
1023110,Zouerate,Oil,,,,14.4,,,Operational,,,,,,,,,,22.70000000000,-12.48333330000,,African Development Bank Group,http://powerafrica.opendataforafrica.org,EcoRex,http://www.ecowrex.org/resources/energy_generators?title_field_value=&&&&&items_per_page=20&page=5,,,,,,,,,,Mauritania,,Power Africa
1023111,Nouakchott (Wind),Wind,,,,30,,,Operational,,,,,,,,,,17.96505300000,-15.98512200000,,African Development Bank Group,http://powerafrica.opendataforafrica.org,EcoRex,http://www.ecowrex.org/resources/energy_generators?title_field_value=&&&&&items_per_page=20&page=5,,,,,,,,,,Mauritania,,Power Africa
