Power Plant ID,Name,Fuel,Secondary Fuel,Generator Technology,Units,Capacity (MW),Commissioning Date,Owner,Operational Status,Location,Annual Generation (GWh),Year of Data,Cooling Technology,Cooling Source,Fuel Consumption (g/kWh),CO2 Annual Reported,CO2 Specific Emissions (tCO2/MWh),Efficiency,Latitude,Longitude,Other,Source,URL,Source 2,URL 2,Peak Load (MW),Load Factor,Capacity Factor,Availability,Grid Connection (kV),Grid Balancing Area,Address,Municipality,Postal Code,Country,Natural Language,Geolocation Source
1001922,CEDC Coal,Coal,,,,246,,,Operational,"Toledo City, Cebu",,2017,,,,,,,,,,Philippines Department of Energy,https://www.doe.gov.ph/list-existing-power-plants,,,,,,,,Visayas Grid,,,,Philippines,,
1001924,KEPCO Coal,Coal,,,,200,,,Operational,"Brgy Colon, Naga,Cebu City",,2017,,,,,,,,,,Philippines Department of Energy,https://www.doe.gov.ph/list-existing-power-plants,,,,,,,,Visayas Grid,,,,Philippines,,
1001893,MAIBARARA,Geothermal,,Flash,,20,,,Operational,"Sto. Tomas, Batangas",,2017,,,,,,,,,,Philippines Department of Energy,https://www.doe.gov.ph/list-existing-power-plants,,,,,,,,Luzon Grid,,,,Philippines,,
1001944,NASULO GPP,Geothermal,,Flash,,50,,,Operational,"Nasulo, Negros Occ.",,2017,,,,,,,,,,Philippines Department of Energy,https://www.doe.gov.ph/list-existing-power-plants,,,,,,,,Visayas Grid,,,,Philippines,,
1001895,HEDCOR,Hydro,,Dam with Reservoir,,33.8,,,Operational,Benguet,,2017,,,,,,,,,,Philippines Department of Energy,https://www.doe.gov.ph/list-existing-power-plants,,,,,,,,Luzon Grid,,,,Philippines,,
1001977,SIBULAN HEP,Hydro,,Dam with Reservoir,,43,,,Operational,"Santa cruz, Davao del Sur",,2017,,,,,,,,,,Philippines Department of Energy,https://www.doe.gov.ph/list-existing-power-plants,,,,,,,,Mindanao Grid,,,,Philippines,,
1001940,CEBU LAND-BASED GT,Natural Gas,,OCGT,,55,,,Operational,Cebu,,2017,,,,,,,,,,Philippines Department of Energy,https://www.doe.gov.ph/list-existing-power-plants,,,,,,,,Visayas Grid,,,,Philippines,,
1001878,TMO,Oil,,Diesel Engine,,242,,,Operational,"Navotas, Metro Manila",,2017,,,,,,,,,,Philippines Department of Energy,https://www.doe.gov.ph/list-existing-power-plants,,,,,,,,Luzon Grid,,,,Philippines,,
1001880,TRANS ASIA POWER,Oil,,Diesel Engine,,52,,,Operational,"Norzagaray, Bulacan",,2017,,,,,,,,,,Philippines Department of Energy,https://www.doe.gov.ph/list-existing-power-plants,,,,,,,,Luzon Grid,,,,Philippines,,
1001881,CIP II,Oil,,Diesel Engine,,21.3,,,Operational,"Bacnotan, La Union",,2017,,,,,,,,,,Philippines Department of Energy,https://www.doe.gov.ph/list-existing-power-plants,,,,,,,,Luzon Grid,,,,Philippines,,
1001882,Lafarge,Oil,,Diesel Engine,,12.7,,,Operational,"Taysan, Batangas",,2017,,,,,,,,,,Philippines Department of Energy,https://www.doe.gov.ph/list-existing-power-plants,,,,,,,,Luzon Grid,,,,Philippines,,
1001914,FCVC DPP,Oil,,Diesel Engine,,26,,,Operational,Cabanatuan City,,2017,,,,,,,,,,Philippines Department of Energy,https://www.doe.gov.ph/list-existing-power-plants,,,,,,,,Luzon Grid,,,,Philippines,,
1001915,TARLAC POWER,Oil,,Diesel Engine,,19,,,Operational,"Capas, Tarlac",,2017,,,,,,,,,,Philippines Department of Energy,https://www.doe.gov.ph/list-existing-power-plants,,,,,,,,Luzon Grid,,,,Philippines,,
1001925,PANAY POWER CORP.,Oil,,Diesel Engine,,94.9,,,Operational,"Ingore, Lapaz, Iloilo City",,2017,,,,,,,,,,Philippines Department of Energy,https://www.doe.gov.ph/list-existing-power-plants,,,,,,,,Visayas Grid,,,,Philippines,,
1001926,TOLEDO POWER CORP. (Carmen Sta),Oil,,Diesel Engine,,45.8,,,Operational,"Toledo City, Cebu",,2017,,,,,,,,,,Philippines Department of Energy,https://www.doe.gov.ph/list-existing-power-plants,,,,,,,,Visayas Grid,,,,Philippines,,
1001927,CEBU PRIVATE POWER,Oil,,Diesel Engine,,70,,,Operational,Cebu City,,2017,,,,,,,,,,Philippines Department of Energy,https://www.doe.gov.ph/list-existing-power-plants,,,,,,,,Visayas Grid,,,,Philippines,,
1001928,EAST ASIA UTILITIES (MEPZA),Oil,,Diesel Engine,,49.7,,,Operational,Cebu City,,2017,,,,,,,,,,Philippines Department of Energy,https://www.doe.gov.ph/list-existing-power-plants,,,,,,,,Visayas Grid,,,,Philippines,,
1001929,PB 103,Oil,,Diesel Engine,,32,,,Operational,"Estancia, Iloilo",,2017,,,,,,,,,,Philippines Department of Energy,https://www.doe.gov.ph/list-existing-power-plants,,,,,,,,Visayas Grid,,,,Philippines,,
1001930,PANAY DPP1,Oil,,Diesel Engine,,29.2,,,Operational,"Dingle, Iloilo",,2017,,,,,,,,,,Philippines Department of Energy,https://www.doe.gov.ph/list-existing-power-plants,,,,,,,,Visayas Grid,,,,Philippines,,
1001932,PB 102,Oil,,Diesel Engine,,32,,,Operational,"Obrero, Iloilo",,2017,,,,,,,,,,Philippines Department of Energy,https://www.doe.gov.ph/list-existing-power-plants,,,,,,,,Visayas Grid,,,,Philippines,,
1001933,BOHOL DPP,Oil,,Diesel Engine,,22,,,Operational,Tagbilaran City,,2017,,,,,,,,,,Philippines Department of Energy,https://www.doe.gov.ph/list-existing-power-plants,,,,,,,,Visayas Grid,,,,Philippines,,
1001934,12.5 MW BUNKER FUEL (GBPC),Oil,,Diesel Engine,,12.6,,,Operational,"Nabas, Aklan",,2017,,,,,,,,,,Philippines Department of Energy,https://www.doe.gov.ph/list-existing-power-plants,,,,,,,,Visayas Grid,,,,Philippines,,
1001935,5 MW BUNKER FUEL (GBPC),Oil,,Diesel Engine,,5,,,Operational,"New Washington, Aklan",,2017,,,,,,,,,,Philippines Department of Energy,https://www.doe.gov.ph/list-existing-power-plants,,,,,,,,Visayas Grid,,,,Philippines,,
1001937,PANAY DIESEL PP III,Oil,,Diesel Engine,,66.4,,,Operational,"Dingle, Iloilo",,2017,,,,,,,,,,Philippines Department of Energy,https://www.doe.gov.ph/list-existing-power-plants,,,,,,,,Visayas Grid,,,,Philippines,,
1001939,ENERVANTAGE DPP,Oil,,Diesel Engine,,11,,,Operational,"Capiz,Panit-an",,2017,,,,,,,,,,Philippines Department of Energy,https://www.doe.gov.ph/list-existing-power-plants,,,,,,,,Visayas Grid,,,,Philippines,,
1001949,CEMEX,Oil,,Diesel Engine,,66,,,Operational,"Naga, Cebu",,2017,,,,,,,,,,Philippines Department of Energy,https://www.doe.gov.ph/list-existing-power-plants,,,,,,,,Visayas Grid,,,,Philippines,,
1001952,TMI 2,Oil,,Diesel Engine,,100,,,Operational,"Nasipit, Agusan del Norte",,2017,,,,,,,,,,Philippines Department of Energy,https://www.doe.gov.ph/list-existing-power-plants,,,,,,,,Mindanao Grid,,,,Philippines,,
1001953,TMI 1,Oil,,Diesel Engine,,100,,,Operational,"Maco, Davao del Norte",,2017,,,,,,,,,,Philippines Department of Energy,https://www.doe.gov.ph/list-existing-power-plants,,,,,,,,Mindanao Grid,,,,Philippines,,
1001955,MPC - IDPP,Oil,,Diesel Engine,,103,,,Operational,"Dalipuga, Iligan City",,2017,,,,,,,,,,Philippines Department of Energy,https://www.doe.gov.ph/list-existing-power-plants,,,,,,,,Mindanao Grid,,,,Philippines,,
1001964,MINDANAO ENERGY SYSTEM 1,Oil,,Diesel Engine,,18.9,,,Operational,Cagayan de Oro City,,2017,,,,,,,,,,Philippines Department of Energy,https://www.doe.gov.ph/list-existing-power-plants,,,,,,,,Mindanao Grid,,,,Philippines,,
1001964,MINDANAO ENERGY SYSTEM 2,Oil,,Diesel Engine,,27.5,,,Operational,Cagayan de Oro City,,2017,,,,,,,,,,Philippines Department of Energy,https://www.doe.gov.ph/list-existing-power-plants,,,,,,,,Mindanao Grid,,,,Philippines,,
1001967,KEGI - Bukidnon,Oil,,Diesel Engine,,3.2,,,Operational,"Valencia City, Bukidnon",,2017,,,,,,,,,,Philippines Department of Energy,https://www.doe.gov.ph/list-existing-power-plants,,,,,,,,Mindanao Grid,,,,Philippines,,
1001968,KEGI - Misamis Or.,Oil,,Diesel Engine,,10.6,,,Operational,"Gingoong, Misamis Oriental",,2017,,,,,,,,,,Philippines Department of Energy,https://www.doe.gov.ph/list-existing-power-plants,,,,,,,,Mindanao Grid,,,,Philippines,,
1001969,MPC-Koronadal,Oil,,Diesel Engine,,13,,,Operational,"Koronadal City, South Cotabato",,2017,,,,,,,,,,Philippines Department of Energy,https://www.doe.gov.ph/list-existing-power-plants,,,,,,,,Mindanao Grid,,,,Philippines,,
1001970,EEI Power,Oil,,Diesel Engine,,15,,,Operational,Davao del Norte,,2017,,,,,,,,,,Philippines Department of Energy,https://www.doe.gov.ph/list-existing-power-plants,,,,,,,,Mindanao Grid,,,,Philippines,,
1001971,SoEnergy,Oil,,Diesel Engine,,19,,,Operational,"Bgry. Apopong, Gen. Santos City, South Co",,2017,,,,,,,,,,Philippines Department of Energy,https://www.doe.gov.ph/list-existing-power-plants,,,,,,,,Mindanao Grid,,,,Philippines,,
1001972,MPC-Digos,Oil,,Diesel Engine,,15,,,Operational,"Digos, Davao del sur",,2017,,,,,,,,,,Philippines Department of Energy,https://www.doe.gov.ph/list-existing-power-plants,,,,,,,,Mindanao Grid,,,,Philippines,,
1001973,KEGI - Panaon,Oil,,Diesel Engine,,15,,,Operational,"Panaon, Ozamis City, Misamis Occ.",,2017,,,,,,,,,,Philippines Department of Energy,https://www.doe.gov.ph/list-existing-power-plants,,,,,,,,Mindanao Grid,,,,Philippines,,
1001974,KEGI-Tandag,Oil,,Diesel Engine,,8,,,Operational,"Tandag, Surigao del Norte",,2017,,,,,,,,,,Philippines Department of Energy,https://www.doe.gov.ph/list-existing-power-plants,,,,,,,,Mindanao Grid,,,,Philippines,,
1001975,PSC,Oil,,Diesel Engine,,37.1,,,Operational,"PHIVIDEC,Villanueva,Misamis Oriental",,2017,,,,,,,,,,Philippines Department of Energy,https://www.doe.gov.ph/list-existing-power-plants,,,,,,,,Mindanao Grid,,,,Philippines,,
1001976,MEGC,Oil,,Diesel Engine,,15,,,Operational,Iligan City,,2017,,,,,,,,,,Philippines Department of Energy,https://www.doe.gov.ph/list-existing-power-plants,,,,,,,,Mindanao Grid,,,,Philippines,,
1001908,Burgos Wind,Wind,,Wind Turbine,,150,,,Operational,"Burgos, Ilocos Norte",,2017,,,,,,,,,,Philippines Department of Energy,https://www.doe.gov.ph/list-existing-power-plants,,,,,,,,Luzon Grid,,,,Philippines,,
1001909,Caparispisan Wind,Wind,,Wind Turbine,,270,,,Operational,"Caparispisan, Ilocos Norte",,2017,,,,,,,,,,Philippines Department of Energy,https://www.doe.gov.ph/list-existing-power-plants,,,,,,,,Luzon Grid,,,,Philippines,,
1023891,Therma South 1 & 2,Coal,,,2,300,2015-2016,Therma South Inc (TSI),Operational,"Davao City/Sta. Cruz, Davao Del",,2017,,,,,,,,,,Philippines Department of Energy,https://www.doe.gov.ph/list-existing-power-plants,,,,,,,,,,,,Philippines,,
1023894,KEGI- Camiguin,Diesel,,Diesel Engine,2,4.1,2016,King Energy Generation Inc,Operational,"Brgy. Maubog, Balbagon, Mambajao, Camiguin",,2017,,,,,,,,,,Philippines Department of Energy,https://www.doe.gov.ph/list-existing-power-plants,,,,,,,,,,,,Philippines,,
1023895,Bukidnon Power Coporation DPP,Diesel,,Diesel Engine,,4.8,2016,Bukidnon Power Coporation,Operational,"Barangay Barandias, Municipality of Pangantucan, Province of Bukidnon",,2017,,,,,,,,,,Philippines Department of Energy,https://www.doe.gov.ph/list-existing-power-plants,,,,,,,,,,,,Philippines,,
1023896,SPC Koronadal,Diesel,,Diesel Engine,,11.9,2016,Supreme Power Corparation,Operational,"Purok Garfin, Brgy. Paraiso, Koronadal South Cotabato",,2017,,,,,,,,,,Philippines Department of Energy,https://www.doe.gov.ph/list-existing-power-plants,,,,,,,,,,,,Philippines,,
1023897,Gift,Rice Husk,,Sub-critical Thermal,,12,2016,Green Innovations for Tomorrow,Operational,"Talavera, Nueva Ecija",,2017,,,,,,,,,,Philippines Department of Energy,https://www.doe.gov.ph/list-existing-power-plants,,,,,,,,,,,,Philippines,,
1023904,Lian Solar,Solar,,PV,,2,2016,Absolut Distillers,Operational,"Lian, Batangas",,2017,,,,,,,,,,Philippines Department of Energy,https://www.doe.gov.ph/list-existing-power-plants,,,,,,,,,,,,Philippines,,
1023907,San Ildefonso Solar,Solar,,PV,,13,2016,Bulacan Solar Energy Corporation,Operational,"San Ildefonso, Bulacan",,2017,,,,,,,,,,Philippines Department of Energy,https://www.doe.gov.ph/list-existing-power-plants,,,,,,,,,,,,Philippines,,
1023908,Montesol,Solar,,PV,,18,2016,Monte Solar Energy Inc. (MONTESOL),Operational,"Bais City, Negros Occidental",,2017,,,,,,,,,,Philippines Department of Energy,https://www.doe.gov.ph/list-existing-power-plants,,,,,,,,,,,,Philippines,,
1029963,Dalayap Solar,Solar,,PV,,7.5,2016,"nv vogt Philippines Solar Energy Four, Inc. (nv vogt 4)",Operational,"Barangay Dalayap, Tarlac City, Tarlac",,2017,,,,,,,,,,Philippines Department of Energy,https://www.doe.gov.ph/list-existing-power-plants,,,,,,,,Luzon Grid,,,,Philippines,,
1029965,Bulanao HEPP,Hydro,,Run of River,,1,2016,DBJ Engineers and Consultants,Operational,"Tabuk, Kalinga",,2017,,,,,,,,,,Philippines Department of Energy,https://www.doe.gov.ph/list-existing-power-plants,,,,,,,,Visays Grid,,,,Philippines,,
1001920,TOLEDO POWER CORP. (Sangi Sta),Coal,,,,88.8,,,Operational,"Toledo City, Cebu",,2017,,,,,,,10.3871,123.6401,,Philippines Department of Energy,https://www.doe.gov.ph/list-existing-power-plants,,,,,,,,Visayas Grid,,,,Philippines,,GEODB
1001921,CEBU TPP(Salcon),Coal,,,,106.8,,,Operational,"Naga, Cebu",,2017,,,,,,,10.2185,123.7577,,Philippines Department of Energy,https://www.doe.gov.ph/list-existing-power-plants,,,,,,,,Visayas Grid,,,,Philippines,,GEODB
1001889,BACMAN,Geothermal,,Flash,,130,,,Operational,"Bacon, Sorsogon",,2017,,,,,,,13.0547,123.9678,,Philippines Department of Energy,https://www.doe.gov.ph/list-existing-power-plants,,,,,,,,Luzon Grid,,,,Philippines,,GEODB
1001890,TIWI,Geothermal,,Flash,,234,,,Operational,"Tiwi, Albay",,2017,,,,,,,13.4655,123.6486,,Philippines Department of Energy,https://www.doe.gov.ph/list-existing-power-plants,,,,,,,,Luzon Grid,,,,Philippines,,GEODB
1001942,LEYTE GPP,Geothermal,,Flash,,112.5,,,Operational,"Tongonan, Leyte",,2017,,,,,,,11.13077,124.65532,,Philippines Department of Energy,https://www.doe.gov.ph/list-existing-power-plants,,,,,,,,Visayas Grid,,,,Philippines,,GEODB
1001943,UNIFIED LEYTE,Geothermal,,Flash,,610.2,,,Operational,"Tongonan, Leyte",,2017,,,,,,,11.13077,124.65532,,Philippines Department of Energy,https://www.doe.gov.ph/list-existing-power-plants,,,,,,,,Visayas Grid,,,,Philippines,,GEODB
1001894,SAN ROQUE,Hydro,,Dam with Reservoir,,411,,,Operational,"San Manuel,Pangasinan",,2017,,,,,,,16.1462,120.6837,,Philippines Department of Energy,https://www.doe.gov.ph/list-existing-power-plants,,,,,,,,Luzon Grid,,,,Philippines,,GEODB
1001896,KALAYAAN PSPP,Hydro,,Dam with Reservoir,,739.2,,,Operational,"Kalayaan, Laguna",,2017,,,,,,,14.3168,121.4739,,Philippines Department of Energy,https://www.doe.gov.ph/list-existing-power-plants,,,,,,,,Luzon Grid,,,,Philippines,,GEODB
1001897,MAGAT,Hydro,,Dam with Reservoir,,360,,,Operational,"Ramon, Isabela",,2017,,,,,,,16.8293,121.4537,,Philippines Department of Energy,https://www.doe.gov.ph/list-existing-power-plants,,,,,,,,Luzon Grid,,,,Philippines,,GEODB
1001898,CALIRAYA,Hydro,,Dam with Reservoir,,35,,,Operational,"Lumban, Laguna",,2017,,,,,,,14.2992,121.4705,,Philippines Department of Energy,https://www.doe.gov.ph/list-existing-power-plants,,,,,,,,Luzon Grid,,,,Philippines,,GEODB
1001900,ANGAT,Hydro,,Dam with Reservoir,,246,,,Operational,"Norzagaray, Bulacan",,2017,,,,,,,14.9098,121.1603,,Philippines Department of Energy,https://www.doe.gov.ph/list-existing-power-plants,,,,,,,,Luzon Grid,,,,Philippines,,GEODB
1001901,PANTABANGAN-MASIWAY,Hydro,,Dam with Reservoir,,132,,,Operational,"Pantabangan, Nueva Ecija",,2017,,,,,,,15.8107,121.109,,Philippines Department of Energy,https://www.doe.gov.ph/list-existing-power-plants,,,,,,,,Luzon Grid,,,,Philippines,,GEODB
1001902,AMBUKLAO,Hydro,,Dam with Reservoir,,105,,,Operational,"Bokud, Benguet",,2017,,,,,,,16.4588,120.7452,,Philippines Department of Energy,https://www.doe.gov.ph/list-existing-power-plants,,,,,,,,Luzon Grid,,,,Philippines,,GEODB
1001903,BINGA,Hydro,,Dam with Reservoir,,132,,,Operational,"Itogon, Benguet",,2017,,,,,,,16.3944,120.729,,Philippines Department of Energy,https://www.doe.gov.ph/list-existing-power-plants,,,,,,,,Luzon Grid,,,,Philippines,,GEODB
1001905,CASECNAN (NIA),Hydro,,Dam with Reservoir,,165,,,Operational,"Pantabangan, Nueva Ecija",,2017,,,,,,,15.8462,121.1998,,Philippines Department of Energy,https://www.doe.gov.ph/list-existing-power-plants,,,,,,,,Luzon Grid,,,,Philippines,,GEODB
1001957,AGUS 1,Hydro,,Dam with Reservoir,,80,,,Operational,"Marawi City,Lanao Sur",,2017,,,,,,,8.0046,124.28683,,Philippines Department of Energy,https://www.doe.gov.ph/list-existing-power-plants,,,,,,,,Mindanao Grid,,,,Philippines,,GEODB
1001958,AGUS 2,Hydro,,Dam with Run of River,,180,,,Operational,"Saguiaran, Lanao Sur",,2017,,,,,,,8.0528,124.2709,,Philippines Department of Energy,https://www.doe.gov.ph/list-existing-power-plants,,,,,,,,Mindanao Grid,,,,Philippines,,GEODB
1001959,AGUS 4,Hydro,,Dam with Run of River,,158.1,,,Operational,"Baloi, Lanao del Norte",,2017,,,,,,,8.1336,124.1983,,Philippines Department of Energy,https://www.doe.gov.ph/list-existing-power-plants,,,,,,,,Mindanao Grid,,,,Philippines,,GEODB
1001960,AGUS 5,Hydro,,Dam with Run of River,,55,,,Operational,"Buru-un, Iligan City",,2017,,,,,,,8.1937,124.1915,,Philippines Department of Energy,https://www.doe.gov.ph/list-existing-power-plants,,,,,,,,Mindanao Grid,,,,Philippines,,GEODB
1001960,AGUS 6,Hydro,,Dam with Run of River,,200,,,Operational,"Buru-un, Iligan City",,2017,,,,,,,8.1937,124.1915,,Philippines Department of Energy,https://www.doe.gov.ph/list-existing-power-plants,,,,,,,,Mindanao Grid,,,,Philippines,,GEODB
1001960,AGUS 7,Hydro,,Dam with Run of River,,54,,,Operational,"Buru-un, Iligan City",,2017,,,,,,,8.1937,124.1915,,Philippines Department of Energy,https://www.doe.gov.ph/list-existing-power-plants,,,,,,,,Mindanao Grid,,,,Philippines,,GEODB
1001961,PULANGI 4,Hydro,,Dam with Reservoir,,255,,,Operational,"Maramag, Bukidnon",,2017,,,,,,,7.7156,125.0236,,Philippines Department of Energy,https://www.doe.gov.ph/list-existing-power-plants,,,,,,,,Mindanao Grid,,,,Philippines,,GEODB
1001879,BAUANG DPP,Oil,,Diesel Engine,,235.2,,,Operational,"Bauang, La Union",,2017,,,,,,,16.4907,120.3261,,Philippines Department of Energy,https://www.doe.gov.ph/list-existing-power-plants,,,,,,,,Luzon Grid,,,,Philippines,,GEODB
1001884,LIMAY CCGT,Oil,,CCGT,,620,,,Operational,"Limay, Bataan",,2017,,,,,,,14.5434,120.5987,,Philippines Department of Energy,https://www.doe.gov.ph/list-existing-power-plants,,,,,,,,Luzon Grid,,,,Philippines,,GEODB
1001938,CEBU DPP (Salcon),Oil,,Diesel Engine,,43.4,,,Operational,"Naga, Cebu",,2017,,,,,,,10.2185,123.7577,,Philippines Department of Energy,https://www.doe.gov.ph/list-existing-power-plants,,,,,,,,Visayas Grid,,,,Philippines,,GEODB
1001885,STA RITA,Natural Gas,,CCGT,,1060,,,Operational,"Sta. Rita, Batangas",,2017,,,,,,,13.7703,121.035,,Philippines Department of Energy,https://www.doe.gov.ph/list-existing-power-plants,,,,,,,,Luzon Grid,,,,Philippines,,GEODB
1001886,ILIJAN,Natural Gas,,CCGT,,1271,,,Operational,"Ilijan, Batangas City",,2017,,,,,,,13.622,121.0795,,Philippines Department of Energy,https://www.doe.gov.ph/list-existing-power-plants,,,,,,,,Luzon Grid,,,,Philippines,,GEODB
1001891,MAKBAN-Binary,Geothermal,,Flash,,15.7,,,Operational,"Bitin bay, Laguna",,2017,,,,,,,14.1447,121.3152,,Philippines Department of Energy,https://www.doe.gov.ph/list-existing-power-plants,,,,,,,,Luzon Grid,,,,Philippines,,CARMA
1001892,MANITO-Lowland,Geothermal,,Flash,,1.5,,,Operational,Albay,,2017,,,,,,,13.1235,123.8693,,Philippines Department of Energy,https://www.doe.gov.ph/list-existing-power-plants,,,,,,,,Luzon Grid,,,,Philippines,,CARMA
1001956,MT APO,Geothermal,,Flash,,109,,,Operational,"Kidapawan, North Cotabato",,2017,,,,,,,7.0083333,125.0894444,,Philippines Department of Energy,https://www.doe.gov.ph/list-existing-power-plants,,,,,,,,Mindanao Grid,,,,Philippines,,CARMA
1001899,BOTOCAN,Hydro,,Dam with Reservoir,,22.8,,,Operational,"Kalayaan,Laguna",,2017,,,,,,,14.1463,121.4729,,Philippines Department of Energy,https://www.doe.gov.ph/list-existing-power-plants,,,,,,,,Luzon Grid,,,,Philippines,,CARMA
1001904,BAKUN,Hydro,,Dam with Reservoir,,70,,,Operational,"Alilem, Ilocos Sur",,2017,,,,,,,16.8861,120.5304,,Philippines Department of Energy,https://www.doe.gov.ph/list-existing-power-plants,,,,,,,,Luzon Grid,,,,Philippines,,CARMA
1001877,SUBIC DPP,Oil,,Diesel Engine,,116,,,Operational,"Olongapo, Zambales",,2017,,,,,,,14.879989,120.234328,,Philippines Department of Energy,https://www.doe.gov.ph/list-existing-power-plants,,,,,,,,Luzon Grid,,,,Philippines,,CARMA
1001912,CALIBU DPP,Oil,,Diesel Engine,,30,,,Operational,Angeles City,,2017,,,,,,,15.1114,120.6053,,Philippines Department of Energy,https://www.doe.gov.ph/list-existing-power-plants,,,,,,,,Luzon Grid,,,,Philippines,,CARMA
1001913,PETERSVILLE DPP,Oil,,Diesel Engine,,9,,,Operational,Angeles City,,2017,,,,,,,15.15,120.5833333,,Philippines Department of Energy,https://www.doe.gov.ph/list-existing-power-plants,,,,,,,,Luzon Grid,,,,Philippines,,CARMA
1001931,PB 101,Oil,,Diesel Engine,,32,,,Operational,Iloilo,,2017,,,,,,,11.5301,122.3975,,Philippines Department of Energy,https://www.doe.gov.ph/list-existing-power-plants,,,,,,,,Visayas Grid,,,,Philippines,,CARMA
1001936,GUIMARAS POWER,Oil,,Diesel Engine,,3.4,,,Operational,"Sn Miguel,Jordan,Guimaras",,2017,,,,,,,10.658356,122.596303,,Philippines Department of Energy,https://www.doe.gov.ph/list-existing-power-plants,,,,,,,,Visayas Grid,,,,Philippines,,CARMA
1001950,SPPC,Oil,,Diesel Engine,,59,,,Operational,"Alabel, Sarangani",,2017,,,,,,,6.101792,125.290478,,Philippines Department of Energy,https://www.doe.gov.ph/list-existing-power-plants,,,,,,,,Mindanao Grid,,,,Philippines,,CARMA
1001951,PB 104,Oil,,Diesel Engine,,32,,,Operational,"Brgy Ilang,Davao",,2017,,,,,,,7.0730556,125.6127778,,Philippines Department of Energy,https://www.doe.gov.ph/list-existing-power-plants,,,,,,,,Mindanao Grid,,,,Philippines,,CARMA
1001954,WMPC,Oil,,Diesel Engine,,113,,,Operational,"Sangali, Zamboanga City",,2017,,,,,,,7.0694444,122.2013889,,Philippines Department of Energy,https://www.doe.gov.ph/list-existing-power-plants,,,,,,,,Mindanao Grid,,,,Philippines,,CARMA
1001965,COTABATO LIGHT,Oil,,Diesel Engine,,10,,,Operational,Cotabato,,2017,,,,,,,7.2236111,124.2463889,,Philippines Department of Energy,https://www.doe.gov.ph/list-existing-power-plants,,,,,,,,Mindanao Grid,,,,Philippines,,CARMA
1001966,BAJADA DPP,Oil,,Diesel Engine,,58.7,,,Operational,Davao City,,2017,,,,,,,7.0730556,125.6127778,,Philippines Department of Energy,https://www.doe.gov.ph/list-existing-power-plants,,,,,,,,Mindanao Grid,,,,Philippines,,CARMA
1001906,BANGUI WIND POWER,Wind,,Wind Turbine,,33,,,Operational,"Bangui Bay,Ilocos Norte",,2017,,,,,,,18.5658333,120.7275,,Philippines Department of Energy,https://www.doe.gov.ph/list-existing-power-plants,,,,,,,,Luzon Grid,,,,Philippines,,CARMA
1001907,Bangui Wind Power Ph3,Wind,,Wind Turbine,,18.9,,,Operational,"Bangui Bay,Ilocos Norte",,2017,,,,,,,18.5658333,120.7275,,Philippines Department of Energy,https://www.doe.gov.ph/list-existing-power-plants,,,,,,,,Luzon Grid,,,,Philippines,,CARMA
1001923,PEDC Coal,Coal,,,,164,,,Operational,"Iloilo City,Panay",,2017,,,,,,,10.723548,122.596122,,Philippines Department of Energy,https://www.doe.gov.ph/list-existing-power-plants,,,,,,,,Visayas Grid,,,,Philippines,,WRI
1001923,PEDC Coal U3,Coal,,Circulating Fluidized Bed,,150,2016,CBPC: Panay Energy Development Corporation,Operational,"Iloilo City, Iloilo",,2017,,,,,,,10.723548,122.596122,,Philippines Department of Energy,https://www.doe.gov.ph/list-existing-power-plants,,,,,,,,Visays Grid,,,,Philippines,,WRI
1001888,MAKBAN,Geothermal,,Flash,,442.8,,,Operational,"Calauan, Laguna",,2017,,,,,,,14.0881,121.2264,,Philippines Department of Energy,https://www.doe.gov.ph/list-existing-power-plants,,,,,,,,Luzon Grid,,,,Philippines,,GEODB
1030474,Islasol III,Solar,,PV,,48,2016,Negros Island Solar Power Inc. (ILASOL),,,,,,,,,,,10.424867,122.928233,,Philippines Department of Energy,https://www.doe.gov.ph/list-existing-power-plants,,,,,,,,Visays Grid,,,,Philippines,,WRI
1001887,SAN LORENZO,Natural Gas,,CCGT,,530,,,Operational,"Sta. Rita, Batangas",,2017,,,,,,,13.771714,124.034924,,Philippines Department of Energy,https://www.doe.gov.ph/list-existing-power-plants,,,,,,,,Luzon Grid,,,,Philippines,,WRI
1001948,SACASOL P1,Solar,,PV,,21,,,Operational,"San Carlos, Negros Occidental",,2017,,,,,,,10.515778,123.435077,,Philippines Department of Energy,https://www.doe.gov.ph/list-existing-power-plants,,,,,,,,Visayas Grid,,,,Philippines,,WRI
1023889,SLTEC Putting Bato,Coal,,,2,270,2016,South Luzon Thermal Energy Corporation,Operational,"Calaca, Batangas",,2017,,,,,,,13.932762,120.790876,,Philippines Department of Energy,https://www.doe.gov.ph/list-existing-power-plants,,,,,,,,Luzon Grid,,,,Philippines,,WRI
1023890,SLPGC,Coal,,,2,300,2016,South Luzon Thermal Energy Corporation,Operational,"Calaca, Batangas",,2017,,,,,,,13.920109,120.826497,,Philippines Department of Energy,https://www.doe.gov.ph/list-existing-power-plants,,,,,,,,Luzon Grid,,,,Philippines,,WRI
1023892,SEC,Coal,,Sub-critical Thermal,1,118,2016,Sarangani Energy Corporation (SEC),Operational,"Maasim, Sarangani",,2017,,,,,,,5.870993,125.078857,,Philippines Department of Energy,https://www.doe.gov.ph/list-existing-power-plants,,,,,,,,,,,,Philippines,,WRI
1023898,Petrosolar,Solar,,PV,,50.1,2016,PetroSolar Corporation,Operational,"Tarlac City, Tarlac",,2017,,,,,,,15.446668,120.61799,,Philippines Department of Energy,https://www.doe.gov.ph/list-existing-power-plants,,,,,,,,,,,,Philippines,,WRI
1023899,YH Green,Solar,,PV,,14.5,2016,YH Green Energy incorporated,Operational,"hermosa, Bataan",,2017,,,,,,,14.832269,120.447586,,Philippines Department of Energy,https://www.doe.gov.ph/list-existing-power-plants,,,,,,,,,,,,Philippines,,WRI
1023900,Cabanatuan Solar,Solar,,PV,,10.3,2016,"First Cabanatuan Renewable Ventures, Inc.",Operational,"Cabanatuan City, Nueva Ecija",,2017,,,,,,,15.496842,120.992088,,Philippines Department of Energy,https://www.doe.gov.ph/list-existing-power-plants,,,,,,,,,,,,Philippines,,WRI
1023901,Calatagan Solar,Solar,,PV,,63.3,2016,Solar Philippines Calatagan Cororation,Operational,"Calatagan and Balayan, Batangas",,2017,,,,,,,13.91553,120.649753,,Philippines Department of Energy,https://www.doe.gov.ph/list-existing-power-plants,,,,,,,,Luzon Grid,,,,Philippines,,WRI
1023902,Currimao Solar,Solar,,PV,,20,2016,Mirae Asia Energy Corp.,Operational,"Currimao, Ilocos Norte",,2017,,,,,,,18.050798,120.485849,,Philippines Department of Energy,https://www.doe.gov.ph/list-existing-power-plants,,,,,,,,,,,,Philippines,,WRI
1023903,Valenzuela Solar,Solar,,PV,,9,2016,Valenzuela Solar Energy Inc. Absolut Distillers Inc.,Operational,Brgy. Isla Valenzuela City,,2017,,,,,,,14.701862,120.953972,,Philippines Department of Energy,https://www.doe.gov.ph/list-existing-power-plants,,,,,,,,,,,,Philippines,,WRI
1023905,Clark Solar,Solar,,PV,,22.3,2016,Enfinity Phillippines Renewable Resources Inc.,Operational,"Clark Freeport Zone, Pampanga",,2017,,,,,,,15.073587,120.589336,,Philippines Department of Energy,https://www.doe.gov.ph/list-existing-power-plants,,,,,,,,,,,,Philippines,,WRI
1023909,Helios,Solar,,PV,,132.5,2016,Helios Solar Energy Corporation (HSEC),Operational,"Brgy., Tinampa-an Cadiz City, Negros Occidental",,2017,,,,,,,14.103329,121.542287,,Philippines Department of Energy,https://www.doe.gov.ph/list-existing-power-plants,,,,,,,,,,,,Philippines,,WRI
1023910,Sacasun,Solar,,PV,,59,2016,San Carlos Sun Power Inc.,Operational,"San Carlos City, Negros Occidental",,2017,,,,,,,10.5115832,123.435126,,Philippines Department of Energy,https://www.doe.gov.ph/list-existing-power-plants,,,,,,,,,,,,Philippines,,WRI
1023911,Islasol II,Solar,,PV,,32,2016,Negros Island Solar Power Inc. (ILASOL),Operational,"La Carlota City, Negros Occidental",,2017,,,,,,,10.421552,122.934829,,Philippines Department of Energy,https://www.doe.gov.ph/list-existing-power-plants,,,,,,,,,,,,Philippines,,WRI
1023912,Silay Solar,Solar,,PV,,25,2016,Megawatt Clean Energy (MCEI),Operational,"Silay City, Negros Occidental",,2017,,,,,,,10.805502,122.990833,,Philippines Department of Energy,https://www.doe.gov.ph/list-existing-power-plants,,,,,,,,,,,,Philippines,,WRI
1023913,Kibawe Solar,Solar,,PV,,10.5,2016,AsiaGreen Energy Corporation,Operational,"Brgy Labuagon, Kibawe, Bukidnon",,2017,,,,,,,7.554559,124.961599,,Philippines Department of Energy,https://www.doe.gov.ph/list-existing-power-plants,,,,,,,,,,,,Philippines,,WRI
1023914,Digos Solar,Solar,,PV,,28.6,2016,Enfinity Phillippines Renewable Resources Inc.,Operational,"Brgy. San Roque, DigosCity, Davo del Sur",,2017,,,,,,,6.771776,125.285329,,Philippines Department of Energy,https://www.doe.gov.ph/list-existing-power-plants,,,,,,,,,,,,Philippines,,WRI
1029959,Anda,Coal,,Circulating Fluidized Bed,1,83.7,2016,Anda Power Corporation,Operational,"Brgy. Bundagul, Mabalacat, Pampanga",,2017,,,,,,,15.234216,120.610865,,Philippines Department of Energy,https://www.doe.gov.ph/list-existing-power-plants,,,,,,,,Luzon Grid,,,,Philippines,,WRI
1029960,Avion,Natural Gas,,OCGT,2,100,2016,Prime Meridian PowerGen Corp.,Operational,"Bolbok, Batangas City",,2017,,,,,,,13.760646,121.04596,,Philippines Department of Energy,https://www.doe.gov.ph/list-existing-power-plants,,,,,,,,Luzon Grid,,,,Philippines,,WRI
1029961,San Gabriel,Natural Gas,,CCGT,1,450,2016,First NatGas Power Corp.,Operational,"Sta. Rita, Batangas City",,2017,,,,,,,13.776922,121.026082,,Philippines Department of Energy,https://www.doe.gov.ph/list-existing-power-plants,,,,,,,,Luzon Grid,,,,Philippines,,WRI
1029962,Sta. Rita Solar,Solar,,PV,,7.1,2016,JOBIN,Operational,"Mt. Sta. Rita, Morong and Hermosa, Bataan",,2017,,,,,,,14.805243,120.363397,,Philippines Department of Energy,https://www.doe.gov.ph/list-existing-power-plants,,,,,,,,Luzon Grid,,,,Philippines,,WRI
1029964,Armenia Solar,Solar,,PV,,8.8,2016,"nv vogt Philippines Solar Energy Four, Inc. (nv vogt 4)",Operational,"Barangay Armenia, Tarlac City, Tarlac",,2017,,,,,,,15.460489,120.591791,,Philippines Department of Energy,https://www.doe.gov.ph/list-existing-power-plants,,,,,,,,Luzon Grid,,,,Philippines,,WRI
1029966,PCPC,Coal,,Circulating Fluidized Bed,,135,2016,Palm Concepcion Power Corporation (PCPC),Operational,"Concepcion, Iloilo",,2017,,,,,,,11.187248,123.12099,,Philippines Department of Energy,https://www.doe.gov.ph/list-existing-power-plants,,,,,,,,Visays Grid,,,,Philippines,,WRI
1029967,Sepalco,Solar,,PV,,45,2016,Sulu Electric Power and Light Inc.,Operational,Palo Leyte,,2017,,,,,,,11.121014,124.972298,,Philippines Department of Energy,https://www.doe.gov.ph/list-existing-power-plants,,,,,,,,Visays Grid,,,,Philippines,,WRI
1029968,FDC Misamic U1,Coal,,Circulating Fluidized Bed,,135,2016,"FDC Utilities, Inc.",Operational,"PHIVIDEC,Villanueva,Misamis Oriental",,2017,,,,,,,8.560063,124.746538,,Philippines Department of Energy,https://www.doe.gov.ph/list-existing-power-plants,,,,,,,,Mindanao Grid,,,,Philippines,,WRI
1029968,FDC Misamic U2,Coal,,Circulating Fluidized Bed,,135,2016,"FDC Utilities, Inc.",Operational,"PHIVIDEC,Villanueva,Misamis Oriental",,2017,,,,,,,8.560063,124.746538,,Philippines Department of Energy,https://www.doe.gov.ph/list-existing-power-plants,,,,,,,,Mindanao Grid,,,,Philippines,,WRI
1029969,SMC Malita U1,Coal,,Circulating Fluidized Bed,,135,2016,San Miguel Consolidated Power Corporation,Operational,"Brgy. Culaman, Malita, Davao Occidental",,2017,,,,,,,6.394348,125.617334,,Philippines Department of Energy,https://www.doe.gov.ph/list-existing-power-plants,,,,,,,,Mindanao Grid,,,,Philippines,,WRI
1030470,SCPC U1,Coal,,Circulating Fluidized Bed,1,150,2017,San Miguel Consolidated Power Corporation,Operational,"Limay, Bataan",,2017,Forced Draft Recirculating Tower,Manilla Bay,,,,,14.524702,120.596351,,Philippines Department of Energy,https://www.doe.gov.ph/list-existing-power-plants,,,,,,,,Luzon Grid,,,,Philippines,,WRI
1030471,Mariveles Solar,Solar,,PV,,18,2017,Next Generation Power Technology Corporation,Operational,"Freeport Area of Bataan(FAB), Mariveles Bataan",,2017,,,,,,,14.450254,120.535542,,Philippines Department of Energy,https://www.doe.gov.ph/list-existing-power-plants,,,,,,,,Luzon Grid,,,,Philippines,,WRI
1030472,San Luis,Hydro,,Run of River,,1,2017,Epower Technologies Corp.,Operational,"San Luis, Aurora",,2017,,,,,,,15.685411,121.474841,,Philippines Department of Energy,https://www.doe.gov.ph/list-existing-power-plants,,,,,,,,Visays Grid,,,,Philippines,,WRI
1030473,First Toledo Solar,Solar,,PV,,60,2017,First Toledo Solar Energy Corporation,Operational,"Hacienda Baltao, Talavera, Toledo, Cebu",,2017,,,,,,,10.415241,123.678887,,Philippines Department of Energy,https://www.doe.gov.ph/list-existing-power-plants,,,,,,,,Visays Grid,,,,Philippines,,WRI
1023906,Palauig Solar,Solar,,PV,,5,2016,SPARC Solar Powered Agri-Rural Communities Corp.,Operational,"Morong, Bataan",,2017,,,,,,,15.440762,119.985563,,Philippines Department of Energy,https://www.doe.gov.ph/list-existing-power-plants,,,,,,,,,,,,Philippines,,WRI
1030480,UPPC,Coal,,Circulating Fluidized Bed,1,30,1998,United Pulp & Paper Co. Inc,Operational,"Calumpit, Bulacan",,2017,,,,,,,14.895205,120.771527,,Philippines Department of Energy,https://www.doe.gov.ph/list-existing-power-plants,,,,,,,,Luzon Grid,,,,Philippines,,WRI
1030484,CW Home Depot Solar,Solar,,PV,,1.7,2017,CW Marketing & Development Corporation,Operational,"Barangay Pulong, Santa Rosa City, Laguna",,2017,,,,,,,14.266558,121.079035,,Philippines Department of Energy,https://www.doe.gov.ph/list-existing-power-plants,,,,,,,,Luzon Grid,,,,Philippines,,WRI
1030485,Morong Solar,Solar,,PV,,5,2017,SPARC Solar Powered Agri-Rural Communities Corporation,Operational,"Morong, Bataan",,2017,,,,,,,14.6912,120.26668,,Philippines Department of Energy,https://www.doe.gov.ph/list-existing-power-plants,,,,,,,,Luzon Grid,,,,Philippines,,WRI
1030486,San Rafael Solar,Solar,,PV,,3.8,2017,SPARC Solar Powered Agri-Rural Communities Corporation,Operational,"San Rafael, Bulacan",,2017,,,,,,,15.007361,120.972999,,Philippines Department of Energy,https://www.doe.gov.ph/list-existing-power-plants,,,,,,,,Luzon Grid,,,,Philippines,,WRI
1030487,Sarrat Solar,Solar,,PV,,1,2017,Bosung Solartec Ic (BOSUNG),Operational,"Sarrat, Ilocos Norte",,2017,,,,,,,18.135916,120.676227,,Philippines Department of Energy,https://www.doe.gov.ph/list-existing-power-plants,,,,,,,,Luzon Grid,,,,Philippines,,WRI
1030488,Cosmo Solar,Solar,,PV,,5.7,2017,"Cosmo Solar Energy, Inc",Operational,"Miag-ao, Iloilo",,2017,,,,,,,10.616289,122.168277,,Philippines Department of Energy,https://www.doe.gov.ph/list-existing-power-plants,,,,,,,,Visayas Grid,,,,Philippines,,WRI
1029968,FDC Misamis U3,Coal,,Circulating Fluidized Bed,,135,,"FDC Utilities, Inc.",Operational,,,2017,,,,,,,,,,Philippines Department of Energy,https://www.doe.gov.ph/list-existing-power-plants,,,,,,,,Mindanao Grid,,,,Philippines,,
1030489,MPC Balingasag Power Station U2,Coal,,Circulating Fluidized Bed,,55,,Minergy Power Corporation,Operational,,,2017,,,,,,,8.766195,124.768454,,Philippines Department of Energy,https://www.doe.gov.ph/list-existing-power-plants,,,,,,,,Mindanao Grid,,,,Philippines,,WRI
1030489,MPC Balingasag Power Station U3,Coal,,Circulating Fluidized Bed,,55,,Minergy Power Corporation,Operational,,,2017,,,,,,,8.766195,124.768454,,Philippines Department of Energy,https://www.doe.gov.ph/list-existing-power-plants,,,,,,,,Mindanao Grid,,,,Philippines,,WRI
1030491,PACERM-1,Diesel,,Diesel Engine,,10.5,2016,PACERM-1 Energy Corporation,,"El Salvador City, Misamis Oriental",,2017,,,,,,,8.557666,124.50796,,Philippines Department of Energy,https://www.doe.gov.ph/list-existing-power-plants,,,,,,,,Mindanao Grid,,,,Philippines,,WRI
1030492,ZAMCELCO DPP,Diesel,,Diesel Engine,,16,2016,ZAMCELCO,Operational,Zamboanga City,,2017,,,,,,,,,,Philippines Department of Energy,https://www.doe.gov.ph/list-existing-power-plants,,,,,,,,Mindanao Grid,,,,Philippines,,
1001941,PALINPINON GPP,Geothermal,,Flash,,192.5,,,Operational,"Valencia, Negros Oriental",,2017,,,,,,,9.3031,123.2141,,Philippines Department of Energy,https://www.doe.gov.ph/list-existing-power-plants,,,,,,,,Visayas Grid,,,,Philippines,,GEODB
1001910,GREEN FUTURE,Biomass,,Sub-critical Thermal,,20,,,Operational,"San Mariano, Isabela",,2017,,,,,,,,,,Philippines Department of Energy,https://www.doe.gov.ph/list-existing-power-plants,,,,,,,,Luzon Grid,,,,Philippines,,
1001911,SJC Ipower,Biomass,,Sub-critical Thermal,,12,,,Operational,"San Jose City, Nueva Ecija",,2017,,,,,,,,,,Philippines Department of Energy,https://www.doe.gov.ph/list-existing-power-plants,,,,,,,,Luzon Grid,,,,Philippines,,
1001916,MONTALBAN LFG,Biomass,,Sub-critical Thermal,,9.3,,,Operational,"Rodriguez, Rizal",,2017,,,,,,,,,,Philippines Department of Energy,https://www.doe.gov.ph/list-existing-power-plants,,,,,,,,Luzon Grid,,,,Philippines,,
1001917,LAGUNA LFG,Biomass,,Sub-critical Thermal,,4.2,,,Operational,"San Pedro , Laguna",,2017,,,,,,,,,,Philippines Department of Energy,https://www.doe.gov.ph/list-existing-power-plants,,,,,,,,Luzon Grid,,,,Philippines,,
1001918,LUCKY PPH,Biomass,,Sub-critical Thermal,,4,,,Operational,"Alicia, Isabela",,2017,,,,,,,,,,Philippines Department of Energy,https://www.doe.gov.ph/list-existing-power-plants,,,,,,,,Luzon Grid,,,,Philippines,,
1001919,PANGEA,Biomass,,Sub-critical Thermal,,1.2,,,Operational,"Payatas, Quezon City",,2017,,,,,,,,,,Philippines Department of Energy,https://www.doe.gov.ph/list-existing-power-plants,,,,,,,,Luzon Grid,,,,Philippines,,
1001946,FIRST FARMERS,Biomass,,Sub-critical Thermal,,21,,,Operational,"Talisay City, Negros Occidental",,2017,,,,,,,,,,Philippines Department of Energy,https://www.doe.gov.ph/list-existing-power-plants,,,,,,,,Visayas Grid,,,,Philippines,,
1001963,CRYSTAL SUGAR,Biomass,,Sub-critical Thermal,,63,,,Operational,"Maramag, Bukidnon",,2017,,,,,,,,,,Philippines Department of Energy,https://www.doe.gov.ph/list-existing-power-plants,,,,,,,,Mindanao Grid,,,,Philippines,,
1001874,APEC,Coal,,Sub-critical Thermal,,50,,,Operational,"Mabalacat, Pampanga",,2017,,,,,,,,,,Philippines Department of Energy,https://www.doe.gov.ph/list-existing-power-plants,,,,,,,,Luzon Grid,,,,Philippines,,
1001876,PETRON RSFFB,Coal,,Sub-critical Thermal,,140,,,Operational,"Limay, Bataan",,2017,,,,,,,,,,Philippines Department of Energy,https://www.doe.gov.ph/list-existing-power-plants,,,,,,,,Luzon Grid,,,,Philippines,,
1001869,PAGBILAO,Coal,,Sub-critical Thermal,,764,,,Operational,"Pagbilao, Quezon",,2017,,,,,,,13.8932,121.745,,Philippines Department of Energy,https://www.doe.gov.ph/list-existing-power-plants,,,,,,,,Luzon Grid,,,,Philippines,,GEODB
1001870,CALACA,Coal,,Sub-critical Thermal,,600,,,Operational,"Calaca, Batangas",,2017,,,,,,,13.9303,120.7886,,Philippines Department of Energy,https://www.doe.gov.ph/list-existing-power-plants,,,,,,,,Luzon Grid,,,,Philippines,,GEODB
1001871,MASINLOC,Coal,,Sub-critical Thermal,,630,,,Operational,"Masinloc, Zambales",,2017,,,,,,,15.5645,119.9233,,Philippines Department of Energy,https://www.doe.gov.ph/list-existing-power-plants,,,,,,,,Luzon Grid,,,,Philippines,,GEODB
1001873,QUEZON POWER,Coal,,Sub-critical Thermal,,511,,,Operational,"Mauban, Quezon",,2017,,,,,,,14.2296,121.7558,,Philippines Department of Energy,https://www.doe.gov.ph/list-existing-power-plants,,,,,,,,Luzon Grid,,,,Philippines,,GEODB
1001962,MINDANAO COAL,Coal,,Sub-critical Thermal,,232,,,Operational,"PHIVIDEC,Villanueva,Misamis Oriental",,2017,,,,,,,8.5725,124.7573,,Philippines Department of Energy,https://www.doe.gov.ph/list-existing-power-plants,,,,,,,,Mindanao Grid,,,,Philippines,,GEODB
1001883,MALAYA,Oil,,Sub-critical Thermal,,650,,,Operational,"Pililla, Rizal",,2017,,,,,,,14.3959,121.3337,,Philippines Department of Energy,https://www.doe.gov.ph/list-existing-power-plants,,,,,,,,Luzon Grid,,,,Philippines,,GEODB
1001872,SUAL,Coal,,Sub-critical Thermal,,1294,,,Operational,"Sual, Pangasinan",,2017,,,,,,,16.1243,120.1012,,Philippines Department of Energy,https://www.doe.gov.ph/list-existing-power-plants,,,,,,,,Luzon Grid,,,,Philippines,,GEODB
1001945,SAN CARLOS,Biomass,,Sub-critical Thermal,,8.3,,,Operational,"San Carlos, Negros Occidental",,2017,,,,,,,10.9844444,122.7711111,,Philippines Department of Energy,https://www.doe.gov.ph/list-existing-power-plants,,,,,,,,Visayas Grid,,,,Philippines,,CARMA
1001947,CASA,Biomass,,Sub-critical Thermal,,15,,,Operational,"Passi, Iloilo, Panay",,2017,,,,,,,14.5480556,120.9969444,,Philippines Department of Energy,https://www.doe.gov.ph/list-existing-power-plants,,,,,,,,Visayas Grid,,,,Philippines,,CARMA
1023893,Calumangan DPP,Diesel,,Sub-critical Thermal,3,23,2016,Central Negros Power Reliability Inc.,Operational,"Bago City, Negros Occidental",,2017,,,,,,,10.580987,122.887844,,Philippines Department of Energy,https://www.doe.gov.ph/list-existing-power-plants,,,,,,,,Visays Grid,,,,Philippines,,WRI
1001875,MARIVELES COAL,Coal,,Sub-critical Thermal,,651.6,,,Operational,"Mariveles, Bataan",,2017,,,,,,,53.209853,3.029321,,Philippines Department of Energy,https://www.doe.gov.ph/list-existing-power-plants,,,,,,,,Luzon Grid,,,,Philippines,,WRI
1030470,SCPC U2,Coal,,Circulating Fluidized Bed,1,150,2017,SMC Consolidated Power Corporation,Operational,,,2017,,,,,,,,,,Philippines Department of Energy,https://www.doe.gov.ph/list-existing-power-plants,,,,,,,,Luzon Grid,,,,Philippines,,
1030483,San Luis,Hydro,,Run of River,2,0.8,2017,Epower Technologies Corporation,Operational,"San Luis, Aurora",,2017,,,,,,,,,,Philippines Department of Energy,https://www.doe.gov.ph/list-existing-power-plants,,,,,,,,Luzon Grid,,,,Philippines,,
1030489,MPC Balingasag Power Station,Coal,,Circulating Fluidized Bed,,55,2017,Minergy Power Corporation,Operational,"Brgy, Mandangoa, Balingasag, Misamis Oriental",,2017,,,,,,,8.766195,124.768454,,Philippines Department of Energy,https://www.doe.gov.ph/list-existing-power-plants,,,,,,,,Mindanao Grid,,,,Philippines,,WRI
1030490,NAC DPP,Diesel,,Diesel Engine,,10.9,2017,Nickel Asia Corporation,Operational,"Km. 10, Brgy Quezon, Surigao City, Surigao del Norte",,2017,,,,,,,9.718943,125.508066,,Philippines Department of Energy,https://www.doe.gov.ph/list-existing-power-plants,,,,,,,,Mindanao Grid,,,,Philippines,,WRI
