Power Plant ID,Name,Fuel,Secondary Fuel,Generator Technology,Units,Capacity (MW),Commissioning Date,Owner,Operational Status,Location,Annual Generation (GWh),Year of Data,Cooling Technology,Cooling Source,Fuel Consumption (g/kWh),CO2 Annual Reported,CO2 Specific Emissions (tCO2/MWh),Efficiency,Latitude,Longitude,Other,Source,URL,Source 2,URL 2,Peak Load (MW),Load Factor,Capacity Factor,Availability,Grid Connection (kV),Grid Balancing Area,Address,Municipality,Postal Code,Country,Natural Language,Geolocation Source
1003792,RVC BTC,Coal,,,,430,1982,Kuzbassenergo,,,,2015,,,,,,,,,,Kuzbassenergo,http://sibgenco.ru/about/activity/electric-power-generation/,,,,,,,,,,,,Russia,,
1003676,Cascade of Kubanskiye HPPs,Hydro,,,,477,,RusHydro,,,"1,384",,,,,,,,,,,RusHydro,RusHydro,,,,,,,,,,,,Russia,,
1003677,Cascade of Verkhnevolzhskiye HPPs,Hydro,,,,477,,RusHydro,,,,,,,,,,,,,,RusHydro,RusHydro,,,,,,,,,,,,Russia,,
1003678,Cascade of Viluysky HPPs,Hydro,,,,680,,RusHydro,,,,,,,,,,,,,,RusHydro,RusHydro,,,,,,,,,,,,Russia,,
1003709,HPP of the Northern Ossetian Branch,Hydro,,,,95,,RusHydro,,,,,,,,,,,,,,RusHydro,RusHydro,,,,,,,,,,,,Russia,,
1003715,Kabardino-Balkarian Branch,Hydro,,,,158,,RusHydro,,,565,,,,,,,,,,,RusHydro,RusHydro,,,,,,,,,,,,Russia,,
1003722,Karachaevo-Cherkessian Branch HPP,Hydro,,,,160,,RusHydro,,,1,,,,,,,,,,,RusHydro,RusHydro,,,,,,,,,,,,Russia,,
1003831,Tolmachyovskiye HPPs,Hydro,,,,45,,RusHydro,,,,,,,,,,,,,,RusHydro,RusHydro,,,,,,,,,,,,Russia,,
1003867,Zaramagsky HPP,Hydro,,,,342,,RusHydro,,,,,,,,,,,,,,RusHydro,RusHydro,,,,,,,,,,,,Russia,,
1003655,Alexin TPP,Natural Gas,,,,62,1941,Quandra,,,,,,,,,,,,,,Quandra,Quadra Production Capacity,,,,,,,,,,,,Russia,,
1003658,Anadyrskaya Gas Engine CHPP,Natural Gas,,,,304,,RusHydro,,,,,,,,,,,,,,RusHydro,RusHydro,,,,,,,,,,,,Russia,,
1003694,Chulmanskaya CHPP,Natural Gas,,,,48,,RusHydro,,,,,,,,,,,,,,RusHydro,RusHydro,,,,,,,,,,,,Russia,,
1003702,Elets TPP,Natural Gas,,,,57,1955,Quandra,,,,,,,,,,,,,,Quandra,Quadra Production Capacity,,,,,,,,,,,,Russia,,
1003718,Kaluga TPP,Natural Gas,,,,41.8,1948,Quandra,,,,,,,,,,,,,,Quandra,Quadra Production Capacity,,,,,,,,,,,,Russia,,
1003719,Kamchatskiye CHPPs,Natural Gas,,,,407,,RusHydro,,,,,,,,,,,,,,RusHydro,RusHydro,,,,,,,,,,,,Russia,,
1003732,Kizelovskaya TPP-3,Natural Gas,,,,29,2004,t+group,,,,,,,,,,,,,1,t+group,Kizelovskaya TPP-3,,,,,,,,,,,,Russia,,
1003747,Kyzym Mobile PP,Natural Gas,,,,72,,RusHydro,,,,,,,,,,,,,,RusHydro,RusHydro,,,,,,,,,,,,Russia,,
1003750,Livny TPP,Natural Gas,,,,42,1958,Quandra,,,,,,,,,,,,,,Quandra,Quadra Production Capacity,,,,,,,,,,,,Russia,,
1003751,Magadanskaya CHPP,Natural Gas,,,,96,,RusHydro,,,,,,,,,,,,,,RusHydro,RusHydro,,,,,,,,,,,,Russia,,
1003752,Mezhdunarodnaya,Natural Gas,,,1 unit,121,2007,Technoproexport,,,,,,,,,,,,,9,Technoproexport,Technoproexport (p.6-7),,,,,,,,,,,,Russia,,
1003754,Mirninskaya TPP,Natural Gas,,,,72,,RusHydro,,,,,,,,,,,,,,RusHydro,RusHydro,,,,,,,,,,,,Russia,,
1003758,Nikolaevskaya CHPP,Natural Gas,,,,131,,RusHydro,,,,,,,,,,,,,,RusHydro,RusHydro,,,,,,,,,,,,Russia,,
1003760,Nizhnetouriskaya,Natural Gas,,,,460,2015,t+group,,,,,,,,,,,,,1,t+group,Nizhnetouriskaya,,,,,,,,,,,,Russia,,
1003762,Northwest CHP,Natural Gas,,,2(450),900,2000-2006,Technoproexport,,,,,,,,,,,,,,Technoproexport,Technoproexport (p.6-7),,,,,,,,,,,,Russia,,
1003767,"Novo-Sterlitamakskaya TPP, a generation facility of Sterlitamakskaya TPP",Natural Gas,,CCGT,,255,1977,Bashkir,,,,2014,,,,,,,,,,Bashkir,http://bgkrb.ru/eng/activities/index.php,,,,,,,,,,,,Russia,,
1003769,Novocheboksarsk CHPP-2,Natural Gas,,,,370,1965,t+group,,,,,,,,,,,,,1,t+group,Novocheboksarsk CHPP-2,,,,,,,,,,,,Russia,,
1003783,Perm HPP-9,Natural Gas,,,,410,1951-1980,t+group,,,,,,,,,,,,,1,t+group,Perm HPP-9,,,,,,,,,,,,Russia,,
1003789,Raychikhiskaya TPP,Natural Gas,,,,102,,RusHydro,,,,,,,,,,,,,,RusHydro,RusHydro,,,,,,,,,,,,Russia,,
1003794,Sakhalinskaya TPP,Natural Gas,,,,252,,RusHydro,,,,,,,,,,,,,,RusHydro,RusHydro,,,,,,,,,,,,Russia,,
1003825,Tchailkovsky CHP-18,Natural Gas,,,,200,1978,t+group,,,,,,,,,,,,,1,t+group,Tchailkovsky CHP-18,,,,,,,,,,,,Russia,,
1003838,TPP-9,Natural Gas,,,,210,1933,Mosenergo (subsidiary of Gazprom),,,,2010,,,,,,,,,,Mosenergo,https://web.archive.org/web/20160314015543/http://www.mosenergo.ru/catalog/228.aspx,,,,,,,,,,,,Russia,,
1003848,Vanovskie,Natural Gas,,,2(325),650,2007-2012,Technoproexport,,,,,,,,,,,,,,Technoproexport,Technoproexport (p.6-7),,,,,,,,,,,,Russia,,
1003857,Yakutskaya TPP,Natural Gas,,,,320,,RusHydro,,,,,,,,,,,,,,RusHydro,RusHydro,,,,,,,,,,,,Russia,,
1003863,Yuzhno-Sakhalinskaya CHPP,Natural Gas,,,,316,,RusHydro,,,,,,,,,,,,,,RusHydro,RusHydro,,,,,,,,,,,,Russia,,
1003727,Khabarovskiye CHPPs,Natural Gas,,,,1155,,RusHydro,,,,,,,,,,,,,,RusHydro,RusHydro,,,,,,,,,,,,Russia,,
1003654,Adlerskaya TPP,Natural Gas,,,,351,,OGK-2 (subsidiary of GazProm),,,"2,538",2014,,,,,,,,,,OGK-2,http://www.ogk2.ru/eng/about/branch/adlerskaya/,,,,,0.724,,,,,,,Russia,,
1003827,Thermal Power Station 11,Coal,,,,250,1959,Irkutskenergo,,,,2015,,,,,,,56.123,101.601,,Irkutskenergo,http://en.irkutskenergo.ru/qa/divisions.html,,,,,,,,,,,,Russia,,GEODB
1003827,Thermal Power Station 16,Coal,,,8(10),80,1966,Irkutskenergo,,,,2015,,,,,,,56.123,101.601,,Irkutskenergo,http://en.irkutskenergo.ru/qa/divisions.html,,,,,,,,,,,,Russia,,GEODB
1003704,GES-1 (PG Smidovich),Natural Gas,,,,86,1897,Mosenergo (subsidiary of Gazprom),,,,2010,,,,,,,55.74808153,37.63021231,,Mosenergo,https://web.archive.org/web/20160314015543/http://www.mosenergo.ru/catalog/228.aspx,,,,,,,,,,,,Russia,,GEODB
1003845,Urengoyskaya,Natural Gas,,,1 unit,450,2012,Technoproexport,,,,,,,,,,,66.0327,78.0816,,Technoproexport,Technoproexport (p.6-7),,,,,,,,,,,,Russia,,GEODB
1003726,Kemerovo thermal power station,Coal,,,,80,1940,Kuzbassenergo,,,,2015,,,,,,,55.3333333,86.0833333,,Kuzbassenergo,http://sibgenco.ru/about/activity/electric-power-generation/,,,,,,,,,,,,Russia,,CARMA
1003791,Rostov NPP,Nuclear,,,,4000,2001,Rosatom,,,"15,704",,,,,,,,47.5993,42.3717,,IAEA,http://www.rosenergoatom.ru/wps/wcm/connect/rosenergoatom_copy/ronpp/,,,,,,,,,,,,Russia,,GEODB
1003714,Izhevsk HPP-1,Natural Gas,,,"60, 231",291,1986-2011,t+group,,,,,,,,,,,56.8918,53.34,1,t+group,http://www.tplusgroup.ru/org/udmurtia/organization/izhevskaja-chp2/,,,,,,,,,,,,Russia,,WRI
1003730,Kirov CHPP-3,Coal,,,,385,1942,t+group,,,,,,,,,,,58.621,49.5944,1,t+group,http://www.tplusgroup.ru/org/kirov/organization/kirovskaja-chp4/,,,,,,,,,,,,Russia,,GEODB
1003712,Ivanovskaya CHPP-3,Natural Gas,,,,330,1974,t+group,,,,,,,,,,,55.23,61.490833,1,t+group,http://www.tplusgroup.ru/org/ivanovo/key-figure/,,,,,,,,,,,,Russia,,GEODB
1003667,Berezniki CHPP-10,Natural Gas,,,,27,1953,t+group,,,,,,,,,,,53.50965,45.318412,1,t+group,http://www.tplusgroup.ru/org/perm/organization/bereznikovskaja-chp10/,,,,,,,,,,,,Russia,,CARMA
1003666,Beloyarsk,Nuclear,,,"600, 840",1480,1964,Rosatom,,x,"4,523",,,,,,,,56.84166667,61.3225,,IAEA,http://www.rosenergoatom.ru/wps/wcm/connect/rosenergoatom_copy/site_en/NPP/,,,,,,,,,,,,Russia,,CARMA
1003858,Yaroslavl TPP-1,Natural Gas,,,,345,1934,TGC-2,,,,,,,,,,,57.550971,39.769699,,TGC-2,http://www.tgc-2.ru/about/indicators/,,,,,,,,,,,,Russia,,WRI
1003858,Yaroslavl TPP-2,Natural Gas,,,,160,1955,TGC-2,,,,,,,,,,,57.550971,39.769699,,TGC-2,http://www.tgc-2.ru/about/indicators/,,,,,,,,,,,,Russia,,WRI
1003807,Severodvinsk CHPP-2,Coal,,,,410,1976,TGC-2,,,,,,,,,,,64.562652,39.833898,,TGC-2,http://www.tgc-2.ru/about/indicators/,,,,,,,,,,,,Russia,,CARMA
1003813,Smolensk TPP-2,Natural Gas,,,,275,1973,Quandra,,,,,,,,,,,47.2161,39.5794,,Quandra,http://www.quadra.ru/about/production_capacity/,,,,,,,,,,,,Russia,,GEODB
1003836,TPP-2,Natural Gas,,,,127,1957,Quandra,,,,,,,,,,,47.2161,39.5794,,Quandra,http://www.quadra.ru/about/production_capacity/,,,,,,,,,,,,Russia,,GEODB
1003836,TPP-2,Natural Gas,,,,515,1978,Quandra,,,,,,,,,,,47.2161,39.5794,,Quandra,http://www.quadra.ru/about/production_capacity/,,,,,,,,,,,,Russia,,GEODB
1003834,TPP-1,Natural Gas,,,,175,1955,Quandra,,,,,,,,,,,54.84017,56.09098,,Quandra,http://www.quadra.ru/about/production_capacity/,,,,,,,,,,,,Russia,,GEODB
1003834,TPP-1,Natural Gas,,,,138,1933,Quandra,,,,,,,,,,,54.84017,56.09098,,Quandra,http://www.quadra.ru/about/production_capacity/,,,,,,,,,,,,Russia,,GEODB
1003742,Krostromskaya,Natural Gas,fuel oil,,"8(300), 1200",3600,1969-1980,Inter RAO,,,,2016,,,,,,,57.45963,41.17408,,Inter RAO,http://irao-generation.com/en/stations/,,,,,,,,,,,,Russia,,WRI
1003736,Komsomolskiye CHPPs,Natural Gas,,,,600,,RusHydro,,,,,,,,,,,53.134735,140.723625,,RusHydro,http://www.eng.rushydro.ru/company_geography/,,,,,,,,,,,,Russia,,WRI
1003695,Dagestan Branch,Hydro,,,,1786,,RusHydro,,,"4,014",,,,,,,,46.8712,46.8712,,RusHydro,http://www.eng.rushydro.ru/company_geography/,,,,,,,,,,,,Russia,,WRI
1003683,Cherepetskaya GRES,Coal,,,4(15)3(300),450,1953,Inter RAO,,,,2016,,,,,,,54.136,36.48,,Inter RAO,http://irao-generation.com/en/stations/,,,,,,,,,,,,Russia,,GEODB
1003706,Novokuznetsk GTPP,Natural Gas,,,,297.44,2015,Kuzbassenergo,,,,2015,,,,,,,,,,Kuzbassenergo,http://sibgenco.ru/about/activity/electric-power-generation/,,,,,,,,,,,,Russia,,
1003854,Vorkuta HPP-2,Coal,,,,270,1955,OOO Vorkuta Thermal Power Station,Operational,,,,,,,,,,67.610556,64.081389,1,EnergyBase (RUS),https://energybase.ru/power-plant/Vorkuta_CHP-2,,,,,,,,,,,,Russia,,
1003656,Amurskaya CHPP,Natural Gas,fuel oil,,,285,,"JSC ""FAR EASTERN GK"" (JSC ""DGK"")",Operational,,,,,,,,,,50.227442,136.882095,,EnergyBase (RUS),https://energybase.ru/power-plant/Amur_CHP-1,,,,,,,,,,,,Russia,,
1003661,Artyomovskaya CHPP,Natural Gas,,,,400,,"JSC ""FAR EASTERN GK"" (JSC ""DGK"")",Operational,,,,,,,,,,43.371389,132.305,,EnergyBase (RUS),https://energybase.ru/power-plant/Artemovskaya_CHP,,,,,,,,,,,,Russia,,
1003672,Blagoveshenskaya CHPP,Natural Gas,,,,280,,"JSC ""FAR EASTERN GK"" (JSC ""DGK"")",Operational / under construction,,,,,,,,,,50.285278,127.489722,,EnergyBase (RUS),https://energybase.ru/power-plant/Blagoveshenskaya_CHP,,,,,,,,,,,,Russia,,
1003696,Dankov TPP,Natural Gas,,,,10,1961,"PJSC ""Quadra - Power Generation""",Operational,,,,,,,,,,53.256111,39.164167,,EnergyBase (RUS),https://energybase.ru/power-plant/Dankovskaya_CHP,,,,,,,,,,,,Russia,,
1003699,Dzhubginskaya,Natural Gas,natural gas,,,198,2013,JSC INTER RAO-Electric Power Generation,Operational,,,2016,,,,,,,44.438835,38.763556,,EnergyBase (RUS),https://energybase.ru/power-plant/Dzhubginskaya_TPP,,,,,,,,,,,,Russia,,
1003700,Efremov TPP,Natural Gas,,,,160,1931,"PJSC ""Quadra - Power Generation""",Operational,,,,,,,,,,53.157329,38.117924,,EnergyBase (RUS),https://energybase.ru/power-plant/Efremovskaya_CHP,,,,,,,,,,,,Russia,,
1003701,Egvenkinotskaya TPP,Natural Gas,,,,34,,"JSC ""Chukotenergo""",Operational,,,,,,,,,,66.401256,-179.133804,,EnergyBase (RUS),https://energybase.ru/power-plant/Egvekinotskaya_TPP,,,,,,,,,,,,Russia,,
1003713,Ivanovskiye,Natural Gas,diesel,,,325,2008,JSC INTER RAO-Electric Power Generation,Operational,,,2016,,,,,,,57.023139,40.384793,,EnergyBase (RUS),https://energybase.ru/power-plant/Ivanovo_CCPF,,,,,,,,,,,,Russia,,
1003745,Kursk TPP-4*,Natural Gas,,,,4.8,1934,"PJSC ""Quadra - Power Generation""",Operational,,,,,,,,,,51.730752,36.198489,,EnergyBase (RUS),https://energybase.ru/power-plant/Kursk_CHP-4,,,,,,,,,,,,Russia,,
1003773,Novomoskovsk SDPS,Natural Gas,,,,233.7,1934,"PJSC ""Quadra - Power Generation""",Operational,,,,,,,,,,54.086389,38.2375,,EnergyBase (RUS),https://energybase.ru/power-plant/Novomoskovskaya_TPP,,,,,,,,,,,,Russia,,
1003787,Priufimskaya TPP,Natural Gas,,CCGT,,210,1976,"LLC ""Bashkir Generation Company""",Operational,,,2014,,,,,,,55.028785,56.032988,,EnergyBase (RUS),https://energybase.ru/power-plant/Priufimskaya_CHP,,,,,,,,,,,,Russia,,
1003796,Salavatskaya TPP,Natural Gas,,CCGT,,185,1953,"LLC ""Bashkir Generation Company""",Operational,,,2014,,,,,,,53.396944,55.8875,,EnergyBase (RUS),https://energybase.ru/power-plant/Salavatskaya_CHP,,,,,,,,,,,,Russia,,
1003809,Shchekinskaya SDPS*,Natural Gas,,,,400,1950,"PJSC ""Quadra - Power Generation""",Operational,,,,,,,,,,53.948578,37.648934,,EnergyBase (RUS),https://energybase.ru/power-plant/Shekinskaya_TPP,,,,,,,,,,,,Russia,,
1003811,"Sibay TPP, a generation facility of Zauralskaya TPP",Natural Gas,,CCGT,,16,2001,"LLC ""Bashkir Generation Company""",Operational,,,2014,,,,,,,,,,EnergyBase (RUS),https://energybase.ru/power-plant/GT_Sibai,,,,,,,,,,,,Russia,,
1003820,Sterlitamakskaya TPP,Natural Gas,,CCGT,,345,1957,"LLC ""Bashkir Generation Company""",Operational,,,2014,,,,,,,53.666561,55.96192,,EnergyBase (RUS),https://energybase.ru/power-plant/Sterlitamak_CHP,,,,,,,,,,,,Russia,,
1003833,TPP Quadra,Natural Gas,,,,116.9,2011,"PJSC ""Quadra - Power Generation""",Operational,,,,,,,,,,51.765965,36.138945,,EnergyBase (RUS),https://energybase.ru/power-plant/CHP_Northwestern_District,,,,,,,,,,,,Russia,,
1003835,"TPP-1, a generation facility of Ufimskaya TPP-4",Natural Gas,,CCGT,,77.74,1938,"LLC ""Bashkir Generation Company""",Operational,,,2014,,,,,,,54.84,56.091111,,EnergyBase (RUS),https://energybase.ru/power-plant/Ufa_CHP-1,,,,,,,,,,,,Russia,,
1003844,Urengoy Mobile PP,Natural Gas,,,,72,,"OJSC ""Mobile power engineering""",Operational,,,,,,,,,,66.092202,76.734079,,EnergyBase (RUS),https://energybase.ru/power-plant/urengoy,,,,,,,,,,,,Russia,,
1003866,Zakamskaya,Natural Gas,,,,69,1936,"Perm Branch of PJSC ""T Plus""",Operational,,,,,,,,,,58.077226,55.770639,1,EnergyBase (RUS),https://energybase.ru/power-plant/Zakamskaya_CHP-5,,,,,,,,,,,,Russia,,
1003868,Zauralskaya TPP,Natural Gas,,CCGT,,15,2004,"LLC ""Bashkir Generation Company""",Operational,,,2014,,,,,,,52.726389,58.707222,,EnergyBase (RUS),https://energybase.ru/power-plant/Zauralskaya_CHP,,,,,,,,,,,,Russia,,
1003841,Tyupkildy Wind Farm,Wind,,,,2.2,2001,"LLC ""Bashkir Generation Company""",Operational,,,2014,,,,,,,54.576689,54.248343,,EnergyBase (RUS),https://energybase.ru/power-plant/Tyupkildy_WPP,,,,,,,,,,,,Russia,,
1003653,ABAKAN CHP,Coal,,,,270,1982,"JSC ""Yenisei TGC (TGC-13)""",Operational / under construction,,,2015,,,,,,,53.719444,91.321944,,EnergyBase (RUS),https://energybase.ru/power-plant/Abakan_CHP,,,,,,,,,,,,Russia,,GEODB
1003663,BARNAUL THERMAL POWER STATION-2,Coal,,,,200,1955,"LLC ""Siberian Generating Company""",Operational / upgrading,,,2015,,,,,,,53.388889,83.758056,,EnergyBase (RUS),https://energybase.ru/power-plant/Barnaul_CHP-2,,,,,,,,,,,,Russia,,GEODB
1003688,CHP-17,Coal,,,,192,1950,"PJSC ""Mosenergo""",Operational,,,2010,,,,,,,54.902778,38.055,,EnergyBase (RUS),https://energybase.ru/power-plant/CHP-17,,,,,,,,,,,,Russia,,GEODB
1003765,Novo-Irkustsk,Coal,,,,655,1960,"PJSC ""IRKUTSKENERGO""",Operational,,,2015,,,,,,,52.250833,104.203889,,EnergyBase (RUS),https://energybase.ru/power-plant/Novo-Irkutsk_CHP,,,,,,,,,,,,Russia,,GEODB
1003827,Thermal Power Station 6,Coal,,,,270,1961,"PJSC ""IRKUTSKENERGO""",Operational,,,2015,,,,,,,56.122651,101.596541,,EnergyBase (RUS),https://energybase.ru/power-plant/Irkutsk_CHP-6,,,,,,,,,,,,Russia,,GEODB
1003828,Thermal Power Station 9,Coal,,,,475,,"PJSC ""IRKUTSKENERGO""",Operational,,,2015,,,,,,,52.532917,103.936452,,EnergyBase (RUS),https://energybase.ru/power-plant/Irkutsk_CHP-9,,,,,,,,,,,,Russia,,GEODB
1003832,TOM-USINSK GRES,Coal,,,,1272,1958,OAO Kuzbassenergo,Operational / upgrading,,,2015,,,,,,,53.781389,87.587778,,EnergyBase (RUS),https://energybase.ru/power-plant/tom-usinskaya-tpp,,,,,,,,,,,,Russia,,GEODB
1003686,CHP-11 (MJ Ufaev),Natural Gas,,,,330,1936,"PJSC ""Mosenergo""",Operational,,,2010,,,,,,,55.752778,37.730278,,EnergyBase (RUS),https://energybase.ru/power-plant/CHP-11,,,,,,,,,,,,Russia,,GEODB
1003687,CHP-12,Natural Gas,,,,412,1941,"PJSC ""Mosenergo""",Operational / under construction,,,2010,,,,,,,55.735889,37.560528,,EnergyBase (RUS),https://energybase.ru/power-plant/CHP-12,,,,,,,,,,,,Russia,,GEODB
1003687,CHP-16,Natural Gas,,,,780,1955,"PJSC ""Mosenergo""",Operational,,,2010,,,,,,,55.783333,37.502222,,EnergyBase (RUS),https://energybase.ru/power-plant/CHP-16,,,,,,,,,,,,Russia,,GEODB
1003689,CHP-20,Natural Gas,fuel oil,,,1150,1952,"PJSC ""Mosenergo""",Operational,,,2010,,,,,,,55.700081,37.585989,,EnergyBase (RUS),https://energybase.ru/power-plant/CHP-20,,,,,,,,,,,,Russia,,GEODB
1003693,CHP-8,Natural Gas,,,,605,1930,"PJSC ""Mosenergo""",Operational,,,2010,,,,,,,55.72425,37.696611,,EnergyBase (RUS),https://energybase.ru/power-plant/CHP-8,,,,,,,,,,,,Russia,,GEODB
1003814,Smolenskaya GRES,Natural Gas,,,,630,1970,"PJSC ""Unipro""",Operational,,"2,390",2007,,,,,,,55.605556,32.413889,CHP,EnergyBase (RUS),https://energybase.ru/power-plant/Smolenskaya_TPP,,,,,,,,,,,,Russia,,GEODB
1003842,Ufimskaya TPP-2,Natural Gas,,CCGT,,514,1940,"LLC ""Bashkir Generation Company""",Operational,,,2014,,,,,,,54.792222,56.117778,,EnergyBase (RUS),https://energybase.ru/power-plant/Ufa_CHP-2,,,,,,,,,,,,Russia,,GEODB
1003842,Ufimskaya TPP-3,Natural Gas,,CCGT,,85,1951,"LLC ""Bashkir Generation Company""",Operational,,,2014,,,,,,,54.870833,56.091389,,EnergyBase (RUS),https://energybase.ru/power-plant/Ufa_CHP-3,,,,,,,,,,,,Russia,,GEODB
1003842,Ufimskaya TPP-4,Natural Gas,,CCGT,,330,1956,"LLC ""Bashkir Generation Company""",Operational,,,2014,,,,,,,54.913056,56.071944,,EnergyBase (RUS),https://energybase.ru/power-plant/Ufa_CHP-4,,,,,,,,,,,,Russia,,GEODB
1003845,Urengoyskaya,Natural Gas,fuel oil,,,529.7,1987,JSC INTER RAO-Electric Power Generation,Operational,,,2016,,,,,,,66.034992,78.083847,,EnergyBase (RUS),https://energybase.ru/power-plant/Urengoyskaya_TPP,,,,,,,,,,,,Russia,,GEODB
1003864,Yuzhnouralskaya 2,Natural Gas,diesel,,2(400),844.5,2014,JSC INTER RAO-Electric Power Generation,Operational,,,2016,,,,,,,54.467519,61.203032,,EnergyBase (RUS),https://energybase.ru/power-plant/Yuzhnouralskaya_TPP-2,,,,,,,,,,,,Russia,,GEODB
1003669,Berezovskaya GRES,Coal,,,,2400,1979,"PJSC ""Unipro""",Operational,,"6,920",2007,,,,,,,55.579444,89.0725,CHP,EnergyBase (RUS),https://energybase.ru/power-plant/Berezovskaya_TPP-1,,,,,,,,,,,,Russia,,GEODB
1003691,CHP-22,Coal,coal,,,1310,1960,"PJSC ""Mosenergo""",Operational,,,2010,,,,,,,55.634141,37.817298,,EnergyBase (RUS),https://energybase.ru/power-plant/CHP-22,,,,,,,,,,,,Russia,,GEODB
1003826,Thermal Power Station 10,Coal,,,,1110,1959-1962,"PJSC ""IRKUTSKENERGO""",Operational,,,2015,,,,,,,52.462194,103.979083,,EnergyBase (RUS),https://energybase.ru/power-plant/Irkutsk_CHP-10,,,,,,,,,,,,Russia,,GEODB
1003739,Krasnoyarsk,Hydro,,Dam with Reservoir,,6000,1972,"JSC ""Krasnoyarsk HPP""",Operational,,"18,300",2005,,,,,,,55.936667,92.295556,Generation is annual average,EnergyBase (RUS),https://energybase.ru/power-plant/Krasnoyarsk_HPP,,,,,,,,,,,,Russia,,GEODB
1003846,Ust Illminsk (HPP),Hydro,,,,3840,1974,"PJSC ""IRKUTSKENERGO""",Operational,,,2015,,,,,,,57.968333,102.695833,,EnergyBase (RUS),https://energybase.ru/power-plant/Ust-Ilim_HPP,,,,,,,,,,,,Russia,,GEODB
1003692,CHP-23,Natural Gas,,,,1420,1966,"PJSC ""Mosenergo""",Operational,,,2010,,,,,,,55.821111,37.771667,,EnergyBase (RUS),https://energybase.ru/power-plant/CHP-23,,,,,,,,,,,,Russia,,GEODB
1003692,CHP-25,Natural Gas,fuel oil,,,1370,1975,"PJSC ""Mosenergo""",Operational,,,2010,,,,,,,55.695278,37.446111,,EnergyBase (RUS),https://energybase.ru/power-plant/CHP-25,,,,,,,,,,,,Russia,,GEODB
1003692,CHP-26,Natural Gas,fuel oil,,,1840,1979,"PJSC ""Mosenergo""",Operational,,,2010,,,,,,,55.5775,37.63,,EnergyBase (RUS),https://energybase.ru/power-plant/CHP-26,,,,,,,,,,,,Russia,,GEODB
1003692,CHP-27,Natural Gas,,,,1060,1996,"PJSC ""Mosenergo""",Operational,,,2010,,,,,,,55.91625,37.687869,,EnergyBase (RUS),https://energybase.ru/power-plant/CHP-27,,,,,,,,,,,,Russia,,GEODB
1003761,Nizhnevartovskaya,Natural Gas,natural gas,,3 units,2013,1993,ZAO Nizhnevartovskaya GRES,Operational,,,2016,,,,,,,60.975833,76.943333,,EnergyBase (RUS),https://energybase.ru/power-plant/Nizhnevartovsk_TPP,,,,,,,,,,,,Russia,,GEODB
1003808,Shaturskaya GRES,Natural Gas,Peat,,,1493,1923,"PJSC ""Unipro""",Operational,,"4,760",2007,,,,,,,55.583333,39.561111,CHP,EnergyBase (RUS),https://energybase.ru/power-plant/Shaturskaya_TPP,,,,,,,,,,,,Russia,,GEODB
1003821,Surgutskaya GRES-2,Natural Gas,,,,5597,1979,"PJSC ""Unipro""",Operational,,"32,890",2007,,,,,,,61.279444,73.5125,CHP,EnergyBase (RUS),https://energybase.ru/power-plant/Surgutskaya_TPP-2,,,,,,,,,,,,Russia,,GEODB
1003788,Pskovskaya GRES,Natural Gas,fuel oil,,,440,1993,"PJSC ""OGK-2""",Operational,,992,2014,,,,,,,57.509722,29.969444,,EnergyBase (RUS),https://energybase.ru/power-plant/Pskovskaya_TPP,,,,,0.258,,,,,,,Russia,,GEODB
1003684,Cherepovetskaya GRES,Coal,natural gas,,,1051.6,1976,"PJSC ""OGK-2""",Operational / under construction,,3088,2014,,,,,,,59.228889,37.125,,EnergyBase (RUS),https://energybase.ru/power-plant/Cherepovetskaya_TPP,,,,,0.53,,,,,,,Russia,,GEODB
1003741,Krasnoyarskaya GRES-2,Coal,fuel oil,,,1250,1957,"PJSC ""OGK-2""",Operational,,4650,2014,,,,,,,56.150278,94.480556,,EnergyBase (RUS),https://energybase.ru/power-plant/Krasnoyarskaya_TPP-2,,,,,0.42,,,,,,,Russia,,GEODB
1003770,Novocherkasskaya GRES,Coal,natural gas,,,2214,1956,"PJSC ""OGK-2""",Operational,,10797,2014,,,,,,,47.4,40.233333,,EnergyBase (RUS),https://energybase.ru/power-plant/Novocherkasskaya_TPP,,,,,0.65,,,,,,,Russia,,GEODB
1003839,Troitskaya GRES,Coal,coal,,,2234,1960,"PJSC ""OGK-2""",Operational,,3185,2014,,,,,,,54.036944,61.647222,,EnergyBase (RUS),https://energybase.ru/power-plant/Troitskaya_TPP,,,,,0.23,,,,,,,Russia,,GEODB
1003729,Kirishskaya GRES,Natural Gas,fuel oil,,,2595,,"PJSC ""OGK-2""",Operational,,5796,2014,,,,,,,59.489167,32.050278,,EnergyBase (RUS),https://energybase.ru/power-plant/Kirishskaya_TPP,,,,,0.255,,,,,,,Russia,,GEODB
1003793,Ryazanskaya GRES,Natural Gas,fuel oil,,,3070,1968,"PJSC ""OGK-2""",Operational / upgrading,,6323,2014,,,,,,,54.035556,39.779444,,EnergyBase (RUS),https://energybase.ru/power-plant/Ryazanskaya_TPP,,,,,0.235,,,,,,,Russia,,GEODB
1003821,Surgutskaya GRES-1,Natural Gas,,,,3268,1968,"PJSC ""OGK-2""",Operational,,21615,2014,,,,,,,61.279444,73.488889,,EnergyBase (RUS),https://energybase.ru/power-plant/Surgutskaya_TPP-1,,,,,0.75,,,,,,,Russia,,GEODB
1003721,KANSK CHP,Coal,,,,24,1953,"JSC ""Yenisei TGC (TGC-13)""",Operational,,,2015,,,,,,,56.229194,95.696083,,EnergyBase (RUS),https://energybase.ru/power-plant/Kan_CHP,,,,,,,,,,,,Russia,,CARMA
1003746,KUZNETSK THERMAL POWER STATION,Coal,,,,100,1944,Owner / Investor,Operational,,,2015,,,,,,,53.769724,87.087582,,EnergyBase (RUS),https://energybase.ru/power-plant/centralnaya-chp-novokuznetsk,,,,,,,,,,,,Russia,,CARMA
1003753,MINUSINSK CHP,Coal,,,,85,1997,"JSC ""Yenisei TGC (TGC-13)""",Operational,,,2015,,,,,,,53.651583,91.777889,,EnergyBase (RUS),https://energybase.ru/power-plant/Minusinskaya_CHP,,,,,,,,,,,,Russia,,CARMA
1003847,Ust Illminsk (TPP),Coal,,,,525,1978,"PJSC ""IRKUTSKENERGO""",Operational,,,2015,,,,,,,58.049227,102.808793,,EnergyBase (RUS),https://energybase.ru/power-plant/Ust-Ilim_CHP,,,,,,,,,,,,Russia,,CARMA
1003743,Kumertauskaya TPP,Natural Gas,,CCGT,,120,1954,"OJSC ""Sverdlovsk Energy and Gas Company"" (JSC ""SEGK"")",Operational,,,2014,,,,,,,52.771461,55.823126,,EnergyBase (RUS),https://energybase.ru/power-plant/Kumertauskaya_CHP,,,,,,,,,,,,Russia,,CARMA
1003815,Sochinskaya,Natural Gas,diesel,,2(78)1(80),160.5,2004,JSC INTER RAO-Electric Power Generation,Operational,,,2016,,,,,,,43.594722,39.754444,,EnergyBase (RUS),https://energybase.ru/power-plant/Sochi_TPP,,,,,,,,,,,,Russia,,CARMA
1003755,NAZAROVO GRES,Coal,,,,1243,1961,"JSC ""Yenisei TGC (TGC-13)""",Operational,,,2015,,,,,,,56.037889,90.347778,,EnergyBase (RUS),https://energybase.ru/power-plant/Nazarovskaya_TPP,,,,,,,,,,,,Russia,,WRI
1003665,BELOVO TPP,Coal,,,,1200,1964,OAO Kuzbassenergo,Operational / upgrading,,,2015,,,,,,,54.445556,86.423056,,EnergyBase (RUS),https://energybase.ru/power-plant/Belovskaya_tpp,,,,,,,,,,,,Russia,,WRI
1003766,NOVO-KEMEROVO CHP,Coal,,,,565,1955,"LLC ""Siberian Generating Company""",Operational,,,2015,,,,,,,55.351111,85.994167,,EnergyBase (RUS),https://energybase.ru/power-plant/Novo-Kemerovskaya_CHP,,,,,,,,,,,,Russia,,WRI
1003837,TPP-3 (R.E. Klasson),Natural Gas,,,,589,1914,"PJSC ""Mosenergo""",Operational,,,2010,,,,,,,55.883333,38.783333,,EnergyBase (RUS),https://energybase.ru/power-plant/CHP-3_im_Klassona,,,,,,,,,,,,Russia,,WRI
1003804,Serovskaya GRES,Coal,natural gas,,,808,1954,"PJSC ""OGK-2""",Operational,,1826,2014,,,,,,,59.633448,60.705085,,EnergyBase (RUS),https://energybase.ru/power-plant/Serovskaya_TPP,,,,,0.388,,,,,,,Russia,,WRI
1003725,KEMEROVO GRES,Coal,,,,485,1934,"LLC ""Siberian Generating Company""",Operational,,,2015,,,,,,,55.367417,86.068389,,EnergyBase (RUS),https://energybase.ru/power-plant/Kemerovo_TPP,,,,,,,,,,,,Russia,,WRI
1003875,Novovoronezh 2,Nuclear,,PWR,,2400,2/27/2017,"JSC ""Concern Rosenergoatom""",under construction,,,2018,,,,,,,51.269603,39.211228,,EnergyBase (RUS),https://energybase.ru/power-plant/Novovoronezh_NPP-2,,,,,,,,,,,,Russia,,WRI
1003768,Novo-Zimanskaya,Coal,,,,240,1973,"PJSC ""IRKUTSKENERGO""",Operational,,,2015,,,,,,,54.033006,102.035131,,EnergyBase (RUS),https://energybase.ru/power-plant/Novo_Ziminskaya_CHP,,,,,,,,,,,,Russia,,WRI
1003764,Novo Sverdlovsk,Natural Gas,,,,557,1982,"Sverdlovsk Branch of PJSC ""T Plus""",Operational,,,,,,,,,,56.839724,60.841041,1,EnergyBase (RUS),https://energybase.ru/power-plant/Novo_Sverdlovsk_CHP,,,,,,,,,,,,Russia,,GEODB
1003670,Bezymyanskaya CHP,Natural Gas,,,6 units,169.7,1941,"Samara branch of PJSC ""T Plus""",Operational,,,,,,,,,,53.199167,50.294444,1,EnergyBase (RUS),https://energybase.ru/power-plant/Bezimyanskaya_CHP,,,,,,,,,,,,Russia,,GEODB
1003843,Ulyanovsk TPP-1,Natural Gas,,,,435,1952,"Ulyanovsk branch of PJSC ""T Plus""",Operational,,,,,,,,,,54.318624,48.340519,1,EnergyBase (RUS),https://energybase.ru/power-plant/Ulyanovsk_CHP-1,,,,,,,,,,,,Russia,,GEODB
1003843,Ulyanovsk TPP-2,Natural Gas,,,,417,1978,"Ulyanovsk branch of PJSC ""T Plus""",Operational,,,,,,,,,,54.347214,48.624952,1,EnergyBase (RUS),https://energybase.ru/power-plant/Ulyanovsk_CHP-2,,,,,,,,,,,,Russia,,GEODB
1003810,Shirokovskaya HPP,Hydro,,,,28,1948,"Perm Branch of PJSC ""T Plus""",Operational,,,,,,,,,,58.834541,57.792546,1,EnergyBase (RUS),https://energybase.ru/power-plant/shirokovskaya-hpp,,,,,,,,,,,,Russia,,CARMA
1003812,Smolensk,Nuclear,,,,3000,1982-1990,"JSC ""Concern Rosenergoatom""",Operational,,"23,673",,,,,,,,54.164722,33.236667,,EnergyBase (RUS),https://energybase.ru/power-plant/Smolensk_NPP,,,,,,,,,,,,Russia,,GEODB
1003797,Samara GRES,Natural Gas,,,,61,1900,"Samara branch of PJSC ""T Plus""",Operational,,,,,,,,,,53.145,50.056389,1,EnergyBase (RUS),https://energybase.ru/power-plant/Samara_TPP,,,,,,,,,,,,Russia,,CARMA
1003795,Sakmarskaya TPP,Natural Gas,,,,460,1969,"Orenburg Branch of PJSC ""T Plus""",Operational,,,,,,,,,,51.843282,55.098753,1,EnergyBase (RUS),https://energybase.ru/power-plant/Sakmarskaya_TPP,,,,,,,,,,,,Russia,,GEODB
1003798,Samara TPP,Natural Gas,,,5 units,440,1971,"Samara branch of PJSC ""T Plus""",Operational,,,,,,,,,,53.251389,50.275556,1,EnergyBase (RUS),https://energybase.ru/power-plant/Samara_CHP,,,,,,,,,,,,Russia,,GEODB
1003799,Saransk CHP-2,Natural Gas,,,,340,1958,"Mordovian branch of PJSC ""T Plus""",Operational,,,,,,,,,,54.217101,45.209266,1,EnergyBase (RUS),https://energybase.ru/power-plant/Saransk_CHP-2,,,,,,,,,,,,Russia,,WRI
1003714,Izhevsk HPP-2,Natural Gas,,,,390,1982,"Udmurtsky branch of PJSC ""T Plus""",Operational,,,,,,,,,,56.893629,53.34035,1,EnergyBase (RUS),https://energybase.ru/power-plant/Izhevsk_CHP-2,,,,,,,,,,,,Russia,,WRI
1003850,Vladivostok CHPP,Natural Gas,,,,497,,"JSC ""FAR EASTERN GK"" (JSC ""DGK"")",Operational,,,,,,,,,,43.100278,131.972778,,EnergyBase (RUS),https://energybase.ru/power-plant/Vladivostok_CHP-2,,,,,,,,,,,,Russia,,WRI
1003853,Volzhskaya HPP,Hydro,,,,2671,1952,"PJSC ""RusHydro""",Operational,,"11,566",,,,,,,,48.824444,44.676667,,EnergyBase (RUS),https://energybase.ru/power-plant/Volgskaya_HPP,,,,,,,,,,,,Russia,,GEODB
1003856,Votkinskaya HPP,Hydro,,,,1020,1955,"PJSC ""RusHydro""",Operational,,"2,793",,,,,,,,56.791944,54.083889,,EnergyBase (RUS),https://energybase.ru/power-plant/Votkinskaya_HPP,,,,,,,,,,,,Russia,,GEODB
1003817,Sosnogorsk TPP,Coal,,,,377,1960,"Komi Branch of PJSC ""T Plus""",Operational,,,,,,,,,,63.57621,53.986462,1,EnergyBase (RUS),https://energybase.ru/power-plant/Sosnogorskaya_TPS,,,,,,,,,,,,Russia,,WRI
1003781,Penza TPP-1,Natural Gas,,,,385,1943,"Penza branch of PJSC ""T Plus""",Operational,,,,,,,,,,53.22257,45.02193,1,EnergyBase (RUS),https://energybase.ru/power-plant/Penza_CHP-1,,,,,,,,,,,,Russia,,WRI
1003781,Penza TPP-2,Natural Gas,,,,16,1957,"Penza branch of PJSC ""T Plus""",Operational,,,,,,,,,,53.160118,45.008153,1,EnergyBase (RUS),https://energybase.ru/power-plant/Penza_CHP-2,,,,,,,,,,,,Russia,,WRI
1003659,Argayash CHP,Coal,,,,195,1954,"PJSC ""Fortum""",Operational,,,2016,,,,,,,55.638889,60.778611,,EnergyBase (RUS),https://energybase.ru/power-plant/Argayashskaya_CHP,,,,,,,,,,,,Russia,,GEODB
1003782,Perm HPP-13,Natural Gas,,,,34,1959,"Perm Branch of PJSC ""T Plus""",Operational,,,,,,,,,,58.125556,56.283056,1,EnergyBase (RUS),https://energybase.ru/power-plant/Perm_CHP-13,,,,,,,,,,,,Russia,,GEODB
1003782,Perm HPP-14,Natural Gas,,,,330,1966,"Perm Branch of PJSC ""T Plus""",Operational,,,,,,,,,,58.019171,55.884211,1,EnergyBase (RUS),https://energybase.ru/power-plant/Perm_CHP-14,,,,,,,,,,,,Russia,,GEODB
1003782,Perm HPP-6,Natural Gas,,,,179.7,1942,"Perm Branch of PJSC ""T Plus""",Operational,,,,,,,,,,57.977222,56.256111,1,EnergyBase (RUS),https://energybase.ru/power-plant/Perm_CHP-6,,,,,,,,,,,,Russia,,GEODB
1003785,Pervouralsk TEZ,Natural Gas,,,,36,1956,"Sverdlovsk Branch of PJSC ""T Plus""",Operational,,,,,,,,,,56.89485,59.98393,1,EnergyBase (RUS),https://energybase.ru/power-plant/Pervouralskaya_CHP,,,,,,,,,,,,Russia,,CARMA
1003657,Anadyr CHPP,Natural Gas,,,,50,,"JSC ""Chukotenergo""",Operational,,,,,,,,,,64.730472,177.499517,,EnergyBase (RUS),https://energybase.ru/power-plant/Anadyr_CHP,,,,,,,,,,,,Russia,,CARMA
1003703,Engels TPP-3,Natural Gas,,,,182,1958,"Saratov Branch of PJSC ""T Plus""",Operational,,,,,,,,,,51.460292,46.153665,1,EnergyBase (RUS),https://energybase.ru/power-plant/Engels_CHP-3,,,,,,,,,,,,Russia,,GEODB
1003860,Yoshkar-Ola CHPP-2,Natural Gas,,,,195,1984,"Branch of Mari El and Chuvashia PJSC ""T Plus""",Operational,,,,,,,,,,56.632222,47.872222,1,EnergyBase (RUS),https://energybase.ru/power-plant/Yoshkar-Ola_CHP,,,,,,,,,,,,Russia,,CARMA
1003679,Cheboksarskaya HPP,Hydro,,,,1370,1968,"PJSC ""RusHydro""",Operational,,"1,890",,,,,,,,56.137331,47.466111,,EnergyBase (RUS),https://energybase.ru/power-plant/Cheboksary_HPP,,,,,,,,,,,,Russia,,GEODB
1003803,Sayano-Shushensky Branch,Hydro,,,,6400,,"PJSC ""RusHydro""",Operational / upgrading,,"20,375",,,,,,,,52.825842,91.370626,,EnergyBase (RUS),https://energybase.ru/power-plant/Sayano-Shushenskaya_HPP,,,,,,,,,,,,Russia,,GEODB
1003664,Belgorod TPP (thermal power plant),Natural Gas,,,,60,1938,"PJSC ""Quadra - Power Generation""",Operational,,,,,,,,,,50.6,36.618611,,EnergyBase (RUS),https://energybase.ru/power-plant/Belgorod_CHP,,,,,,,,,,,,Russia,,CARMA
1003735,Komsomolskaya CHPP,Natural Gas,,,,360,,"JSC ""FAR EASTERN GK"" (JSC ""DGK"")",Operational / under construction,,,,,,,,,,50.606111,136.954722,,EnergyBase (RUS),https://energybase.ru/power-plant/Komsomolskaya_CHP-3,,,,,,,,,,,,Russia,,WRI
1003737,Konakovskaya,Natural Gas,fuel oil,,3(320)5(300),2520,1965,"PJSC ""Enel Russia""",Operational,,7753,2015,,,,,,,56.740961,36.770742,Gross generation from 2015,EnergyBase (RUS),https://energybase.ru/power-plant/Konakovskaya_TPP,,,,,,,,,,,,Russia,,GEODB
1003730,Kirov CHPP-4,Coal,,,,353,1963,"Kirov branch of PJSC ""T Plus""",Operational / upgrading,,,,,,,,,,58.621083,49.596528,1,EnergyBase (RUS),https://energybase.ru/power-plant/Kirov_CHP-4,,,,,,,,,,,,Russia,,GEODB
1003731,Kirov TPP-5,Coal,,,,450,1980,"Kirov branch of PJSC ""T Plus""",Operational,,,,,,,,,,58.549516,49.583316,1,EnergyBase (RUS),https://energybase.ru/power-plant/Kirov_CHP-5,,,,,,,,,,,,Russia,,GEODB
1003733,Kola NPP,Nuclear,,,4(440),1760,1973-1984,"JSC ""Concern Rosenergoatom""",Operational,,"10,361",,,,,,,,67.466667,32.466667,,EnergyBase (RUS),https://energybase.ru/power-plant/Kola_NPP,,,,,,,,,,,,Russia,,GEODB
1003830,Togliatti,Coal,,,,620,1960,"Samara branch of PJSC ""T Plus""",Operational,,,,,,,,,,53.547222,49.453889,1,EnergyBase (RUS),https://energybase.ru/power-plant/Tolyatti_CHP,,,,,,,,,,,,Russia,,GEODB
1003723,Kargalinskaya,Natural Gas,,,,320,1973,"Orenburg Branch of PJSC ""T Plus""",Operational,,,,,,,,,,51.866104,54.774056,1,EnergyBase (RUS),https://energybase.ru/power-plant/Kargalin_CHP,,,,,,,,,,,,Russia,,GEODB
1003720,Kamskaya HPP,Hydro,,,,543,1949,"PJSC ""RusHydro""",Operational,,"1,998",,,,,,,,58.114556,56.328861,,EnergyBase (RUS),https://energybase.ru/power-plant/Kamskaya_HPP,,,,,,,,,,,,Russia,,GEODB
1003712,Ivanovskaya CHPP-2,Natural Gas,,,,200,1954,"Ivanovo branch of PJSC ""T Plus""",Operational,,,,,,,,,,56.990656,41.011334,1,EnergyBase (RUS),https://energybase.ru/power-plant/Ivanovo_CHP-2,,,,,,,,,,,,Russia,,GEODB
1003802,Saratovskaya HPP,Hydro,,,,1403,1956,"PJSC ""RusHydro""",Operational,,"5,600",,,,,,,,52.048056,47.762222,,EnergyBase (RUS),https://energybase.ru/power-plant/Saratovskaya_HPP,,,,,,,,,,,,Russia,,GEODB
1003668,Berezniki CHPP-2,Natural Gas,,,,98,1947,"Perm Branch of PJSC ""T Plus""",Operational,,,,,,,,,,59.450278,56.820556,1,EnergyBase (RUS),https://energybase.ru/power-plant/Bereznikovskaya_CHP-2,,,,,,,,,,,,Russia,,CARMA
1003668,Berezniki CHPP-4,Natural Gas,,,,29.2,1931,"Perm Branch of PJSC ""T Plus""",Operational,,,,,,,,,,59.406944,56.735833,1,EnergyBase (RUS),https://energybase.ru/power-plant/Bereznikovskaya_CHP-4,,,,,,,,,,,,Russia,,CARMA
1003800,Saratov HPP-2,Natural Gas,,,,224,1955,"Saratov Branch of PJSC ""T Plus""",Operational,,,,,,,,,,51.452778,45.918333,1,EnergyBase (RUS),https://energybase.ru/power-plant/Saratov_CHP-2,,,,,,,,,,,,Russia,,GEODB
1003800,Saratov HPP-5,Natural Gas,,,,445,1978,"Saratov Branch of PJSC ""T Plus""",Operational,,,,,,,,,,51.623889,46.009722,1,EnergyBase (RUS),https://energybase.ru/power-plant/Saratov_CHP-5,,,,,,,,,,,,Russia,,GEODB
1003801,Saratov TPP- HPP 1,Natural Gas,,,,54,1930,"Saratov Branch of PJSC ""T Plus""",Operational,,,,,,,,,,51.522278,46.033944,1,EnergyBase (RUS),https://energybase.ru/power-plant/Saratov_TPP,,,,,,,,,,,,Russia,,CARMA
1003680,Cheboksary CHPP=2,Natural Gas,,,,460,1979,"Branch of Mari El and Chuvashia PJSC ""T Plus""",Operational,,,,,,,,,,56.12603,47.299576,1,EnergyBase (RUS),https://energybase.ru/power-plant/Cheboksary_CHP-2,,,,,,,,,,,,Russia,,WRI
1003816,Sormovo cogeneration station,Natural Gas,,,,350,1974,"Nizhny Novgorod branch of PJSC ""T Plus""",Operational,,,,,,,,,,56.3525,43.891389,1,EnergyBase (RUS),https://energybase.ru/power-plant/Sormovskaya_CHP,,,,,,,,,,,,Russia,,WRI
1003685,CHP Volga Car,Natural Gas,,,11 units,1172,1967,"Samara branch of PJSC ""T Plus""",Operational,,,,,,,,,,53.575,49.245278,1,EnergyBase (RUS),https://energybase.ru/power-plant/CHP_VAZ,,,,,,,,,,,,Russia,,GEODB
1003759,Nizhegorodskaya HPP,Hydro,,,,520,1948,"PJSC ""RusHydro""",Operational,,"1,281",,,,,,,,56.650556,43.375556,,EnergyBase (RUS),https://energybase.ru/power-plant/Nizhegorodskaya_HPP,,,,,,,,,,,,Russia,,GEODB
1003870,Zhigulevskaya HPP,Hydro,,,,2467,1950,"PJSC ""RusHydro""",Operational,,"10,488",,,,,,,,53.426451,49.479416,,EnergyBase (RUS),https://energybase.ru/power-plant/Zhigulovskaya_HPP,,,,,,,,,,,,Russia,,WRI
1003744,Kursk,Nuclear,,,,4000,2001-2014,"JSC ""Concern Rosenergoatom""",Operational,,"29,223",,,,,,,,51.675,35.605556,,EnergyBase (RUS),https://energybase.ru/power-plant/Kursk_NPP,,,,,,,,,,,,Russia,,GEODB
1003823,Syzran TPP,Natural Gas,,,,372.4,1947,"Samara branch of PJSC ""T Plus""",Operational,,,,,,,,,,53.064167,48.399444,1,EnergyBase (RUS),https://energybase.ru/power-plant/Syzranskaya_CHP,,,,,,,,,,,,Russia,,GEODB
1003822,Sverdlovsk CHP,Natural Gas,,,,36,1932,"Sverdlovsk Branch of PJSC ""T Plus""",Operational,,,,,,,,,,56.875951,60.59402,1,EnergyBase (RUS),https://energybase.ru/power-plant/Sverdlovsk_CHP,,,,,,,,,,,,Russia,,CARMA
1003698,Dzerzhinsk TPP,Natural Gas,,,,580,1961,"Nizhny Novgorod branch of PJSC ""T Plus""",Operational,,,,,,,,,,56.233611,43.520833,1,EnergyBase (RUS),https://energybase.ru/power-plant/Dzerzhinsk_CHP,,,,,,,,,,,,Russia,,WRI
1003749,Leningrad NPP,Nuclear,,,4(1000),4000,1973-1981,"JSC ""Concern Rosenergoatom""",Operational,,"25,373",,,,,,,,59.852778,29.048611,,EnergyBase (RUS),https://energybase.ru/power-plant/Leningrad_NPP,,,,,,,,,,,,Russia,,GEODB
1003748,Labytnangi Mobile PP,Natural Gas,,,,73,,"OJSC ""Mobile power engineering""",Operational,,,,,,,,,,66.66522,66.418533,,EnergyBase (RUS),https://energybase.ru/power-plant/labytnangi,,,,,,,,,,,,Russia,,CARMA
1003778,Partizanskaya TPP,Coal,,,,203,,"JSC ""FAR EASTERN GK"" (JSC ""DGK"")",Operational,,,,,,,,,,43.0615,133.135544,,EnergyBase (RUS),https://energybase.ru/power-plant/Partizanskaya_TPP,,,,,,,,,,,,Russia,,WRI
1003772,Novokuibyshevsk HPP-1,Natural Gas,,,6 unit,482,1947,"Samara branch of PJSC ""T Plus""",Operational,,,,,,,,,,53.110333,49.920361,1,EnergyBase (RUS),https://energybase.ru/power-plant/Novokuibyshev_CHP-1,,,,,,,,,,,,Russia,,GEODB
1003775,Novovoronezh,Nuclear,,,,1880,1971-1980,"JSC ""Concern Rosenergoatom""",Operational,,"13,242",,,,,,,,51.282222,39.21,,EnergyBase (RUS),https://energybase.ru/power-plant/Novovoronezh_NPP,,,,,,,,,,,,Russia,,GEODB
1003777,Orsk TPP-1,Natural Gas,fuel oil,,,245,1938,"Orenburg Branch of PJSC ""T Plus""",Operational,,,,,,,,,,51.240816,58.49855,1,EnergyBase (RUS),https://energybase.ru/power-plant/Orsk_CHP-1,,,,,,,,,,,,Russia,,GEODB
1003662,Balakovo TPP-4,Natural Gas,,,,370,1962,"Saratov Branch of PJSC ""T Plus""",Operational,,,,,,,,,,51.975556,47.783333,1,EnergyBase (RUS),https://energybase.ru/power-plant/Balakovo_CHP-4,,,,,,,,,,,,Russia,,GEODB
1003660,Arkhangelsk CHPP,Natural Gas,,,,450,1970,"PJSC ""TGC-2""",Operational,,,,,,,,,,64.575278,40.573056,,EnergyBase (RUS),https://energybase.ru/power-plant/Arkhangelsk_CHP,,,,,,,,,,,,Russia,,WRI
1003671,Bilibino,Nuclear,,,4(12),48,1973-1977,"JSC ""Concern Rosenergoatom""",Operational,,220,,,,,,,,68.050278,166.538889,,EnergyBase (RUS),https://energybase.ru/power-plant/Bilibino_NPP,,,,,,,,,,,,Russia,,GEODB
1003763,Novgorod CHPP,Coal,,,,190,1968,"PJSC ""TGC-2""",Operational,,,,,,,,,,58.623611,31.221944,,EnergyBase (RUS),https://energybase.ru/power-plant/Novgorod_CHP,,,,,,,,,,,,Russia,,CARMA
1003852,Vologda CHP,Natural Gas,,CCGT,,136.1,2011,"PJSC ""TGC-2""",Operational,,,,,,,,,,59.195,39.938889,,EnergyBase (RUS),https://energybase.ru/power-plant/Vologda_CHP,,,,,,,,,,,,Russia,,GEODB
1003858,Yaroslavl TPP-3,Natural Gas,,,,345,1961-1970,"PJSC ""TGC-2""",Operational,,,,,,,,,,57.550556,39.771111,,EnergyBase (RUS),https://energybase.ru/power-plant/Yaroslavl_CHP-3,,,,,,,,,,,,Russia,,WRI
1003738,Kostroma CHPP-1,Natural Gas,,,,33,1930,"PJSC ""TGC-2""",Operational,,,,,,,,,,57.783611,40.905556,,EnergyBase (RUS),https://energybase.ru/power-plant/Kostroma_CHP-1,,,,,,,,,,,,Russia,,CARMA
1003738,Kostroma CHPP-2,Natural Gas,,,,170,1978,"PJSC ""TGC-2""",Operational,,,,,,,,,,57.753611,41.03,,EnergyBase (RUS),https://energybase.ru/power-plant/Kostroma_CHP-2,,,,,,,,,,,,Russia,,CARMA
1003807,Severodvinsk CHPP-1,Coal,,,,188.5,1941,"PJSC ""TGC-2""",Operational / under construction,,,,,,,,,,64.581009,39.857712,,EnergyBase (RUS),https://energybase.ru/power-plant/Severodvinsk_CHP-1,,,,,,,,,,,,Russia,,CARMA
1003840,Tyumen CHP-1,Natural Gas,,,2(40)3(77)1(220)1(230),662,1960,"PJSC ""Fortum""",Operational,,,2016,,,,,,,57.147139,65.606861,,EnergyBase (RUS),https://energybase.ru/power-plant/Tyumen_CHP-1,,,,,,,,,,,,Russia,,GEODB
1003840,Tyumen CHP-2,Natural Gas,,,"3(180), 1(215)",755,1986,"PJSC ""Fortum""",Operational,,,2016,,,,,,,57.086667,65.626944,,EnergyBase (RUS),https://energybase.ru/power-plant/Tyumen_CHP-2,,,,,,,,,,,,Russia,,GEODB
1003681,Chelyabinsk CHP-1,Natural Gas,,,,232.8,1942,"PJSC ""Fortum""",Operational,,,2016,,,,,,,55.133889,61.4775,,EnergyBase (RUS),https://energybase.ru/power-plant/Chelyabinsk_CHP-1,,,,,,,,,,,,Russia,,GEODB
1003681,Chelyabinsk CHP-2,Natural Gas,,,2(60)2(100),320,1962,"PJSC ""Fortum""",Operational,,,2016,,,,,,,55.153333,61.499722,,EnergyBase (RUS),https://energybase.ru/power-plant/Chelyabinsk_CHP-2,,,,,,,,,,,,Russia,,GEODB
1003681,Chelyabinsk CHP-3,Natural Gas,,,,576.3,1996-2011,"PJSC ""Fortum""",Operational,,,2016,,,,,,,55.23,61.490833,,EnergyBase (RUS),https://energybase.ru/power-plant/Chelyabinsk_CHP-3,,,,,,,,,,,,Russia,,GEODB
1003682,Chelyabinsk GRES,Natural Gas,,,"286, 209",742,1930,"PJSC ""Fortum""",Operational,,,2016,,,,,,,55.201389,61.403056,,EnergyBase (RUS),https://energybase.ru/power-plant/Chelyabinsk_TPP,,,,,,,,,,,,Russia,,GEODB
1003829,Tobolsk CHP,Natural Gas,,,"165, 170, 140 (Thermal units), 213 (CCGT)",878.3,1980,TOBOLSKAYA TPP,Operational,,,2016,,,,,,,58.244944,68.44525,,EnergyBase (RUS),https://energybase.ru/power-plant/Tobolsk_TEC,,,,,,,,,,,,Russia,,GEODB
1003705,"GT-TPP (gas turbine TPP) ""Luch""",Natural Gas,,,,60,2005,"PJSC ""Quadra - Power Generation""",Operational,,,,,,,,,,50.560923,36.580634,,EnergyBase (RUS),https://energybase.ru/power-plant/GTU_CHP_BEAM,,,,,,,,,,,,Russia,,CARMA
1003707,Gubkin TPP,Natural Gas,,,,29,1954,"PJSC ""Quadra - Power Generation""",Operational,,,,,,,,,,51.280869,37.578425,,EnergyBase (RUS),https://energybase.ru/power-plant/Gubkinskaya_CHP,,,,,,,,,,,,Russia,,CARMA
1003824,Tambov TPP,Natural Gas,fuel oil,,,235,1954,"PJSC ""Quadra - Power Generation""",Operational,,,,,,,,,,52.753334,41.478539,,EnergyBase (RUS),https://energybase.ru/power-plant/Tambov_CHP,,,,,,,,,,,,Russia,,CARMA
1003697,Dyagilev TPP,Natural Gas,,,,225,1958,"PJSC ""Quadra - Power Generation""",Operational / under construction,,,,,,,,,,54.676528,39.624083,,EnergyBase (RUS),https://energybase.ru/power-plant/Diaghilev_CHP,,,,,,,,,,,,Russia,,CARMA
1003776,Orel TPP,Natural Gas,,,,330,1946,"PJSC ""Quadra - Power Generation""",Operational,,,,,,,,,,52.987898,36.098328,,EnergyBase (RUS),https://energybase.ru/power-plant/Orel_CHP,,,,,,,,,,,,Russia,,WRI
1003740,KRASNOYARSK CHP-1,Coal,,,,481,1943,"JSC ""Yenisei TGC (TGC-13)""",Operational,,,2015,,,,,,,56.024444,93.032778,,EnergyBase (RUS),https://energybase.ru/power-plant/Krasnoyarsk_CHP-1,,,,,,,,,,,,Russia,,WRI
1003740,KRASNOYARSK CHP-2,Coal,,,,465,1979,"JSC ""Yenisei TGC (TGC-13)""",Operational,,,2015,,,,,,,55.971389,92.896667,,EnergyBase (RUS),https://energybase.ru/power-plant/Krasnoyarsk_CHP-2,,,,,,,,,,,,Russia,,WRI
1003740,KRASNOYARSK CHP-3,Coal,,,,208,1992,"JSC ""Yenisei TGC (TGC-13)""",Operational,,,2015,,,,,,,56.109722,93.094806,,EnergyBase (RUS),https://energybase.ru/power-plant/Krasnoyarsk_CHP-3,,,,,,,,,,,,Russia,,WRI
1003756,Nerunginskya TPP,Coal,,,,618,,"JSC ""FAR EASTERN GK"" (JSC ""DGK"")",Operational,,,,,,,,,,56.668889,124.853333,,EnergyBase (RUS),https://energybase.ru/power-plant/Neryungrinskaya,,,,,,,,,,,,Russia,,WRI
1003859,Yavinskaya GRES,Natural Gas,,,,1025,1956,"PJSC ""Unipro""",Operational,,"4,070",2007,,,,,,,59.337778,57.246111,CHP,EnergyBase (RUS),https://energybase.ru/power-plant/Yayvinskaya_TPP,,,,,,,,,,,,Russia,,GEODB
1003673,Boguchanskaya HPP,Hydro,,Dam with Reservoir,,2997,2012,"PJSC ""RusHydro""",Operational,Angara Rive,"8,362",,,,,,,,58.694444,99.148889,,EnergyBase (RUS),https://energybase.ru/power-plant/Boguchanskaya_HPP,,,,,,,,,,,,Russia,,GEODB
1003708,Gusinoozyorskaya,Coal,fuel oil,,2(170)2(180)2(200),1160,1976,JSC INTER RAO-Electric Power Generation,Operational,,,2016,,,,,,,51.300833,106.483333,,EnergyBase (RUS),https://energybase.ru/power-plant/Gusinoozerskaya_TPP,,,,,,,,,,,,Russia,,WRI
1003819,Stavropolskaya GRES,Natural Gas,fuel oil,,,2415,1971,"PJSC ""OGK-2""",Operational,,8496,2014,,,,,,,45.312222,41.511111,,EnergyBase (RUS),https://energybase.ru/power-plant/Stavropolskaya_TPP,,,,,0.404,,,,,,,Russia,,WRI
1003724,Karmanovskaya TPP,Natural Gas,,,,1831,1968,"LLC ""Bashkir Generation Company""",Operational,,"19,567",2014,,,,,,,56.248556,54.588194,Generation is from 2014,EnergyBase (RUS),https://energybase.ru/power-plant/Karmanovskaia_TPP,,,,,,,,,,,,Russia,,WRI
1003806,Severo-Zapadnaya,Natural Gas,diesel,,2(450),900,2000-2006,JSC INTER RAO-Electric Power Generation,Operational,,,2016,,,,,,,60.015978,30.097817,,EnergyBase (RUS),https://energybase.ru/power-plant/North-West_CHP,,,,,,,,,,,,Russia,,WRI
1003710,Ikustsk,Hydro,,,3(83),662.4,1958,"PJSC ""IRKUTSKENERGO""",Operational,,,2015,,,,,,,52.236667,104.321667,,EnergyBase (RUS),https://energybase.ru/power-plant/Irkutsk_HPP,,,,,,,,,,,,Russia,,WRI
1023915,Balakovo NPP,Nuclear,,,4(1000),4000,1985-1993,"JSC ""Concern Rosenergoatom""",Operational,,"29,820",,,,,,,,52.092778,47.953889,,EnergyBase (RUS),https://energybase.ru/power-plant/Balakovo_NPP,,,,,,,,,,,,Russia,,WRI
1003717,Kalinn NPP,Nuclear,,,4(1000),4000,1984-2011,"JSC ""Concern Rosenergoatom""",Operational,x,"33,441",,,,,,,,57.905,35.061389,,EnergyBase (RUS),https://energybase.ru/power-plant/Kalinin_NPP,,,,,0.9544,,,,,,,Russia,,WRI
1003851,Vladmir Branch,Natural Gas,fuel oil,,,596,1962,"Vladimir Branch of PJSC ""T Plus""",Operational,,,,,,,,,,56.144778,40.454611,1,EnergyBase (RUS),https://energybase.ru/power-plant/Vladimir_CHP,,,,,,,,,,,,Russia,,WRI
1003675,Byreyskaya HPP,Hydro,,,,2010,,"PJSC ""RusHydro""",Operational,,"6,066",,,,,,,,50.27,130.313611,,EnergyBase (RUS),https://energybase.ru/power-plant/Bureyskaya_HPP,,,,,,,,,,,,Russia,,WRI
1003674,Bratsk HPP,Hydro,,,18(250),4500,1954-1967,"PJSC ""IRKUTSKENERGO""",Operational,,"22,300",2015,,,,,,,56.286111,101.784167,,EnergyBase (RUS),https://energybase.ru/power-plant/Bratsk_HPP,,,,,,,,,,,,Russia,,WRI
1003786,Primorskaya TPP,Coal,,,,1467,1974,"JSC ""FAR EASTERN GK"" (JSC ""DGK"")",Operational,,,,,,,,,,46.4625,134.291111,,EnergyBase (RUS),https://energybase.ru/power-plant/Primorsk_TPP,,,,,,,,,,,,Russia,,WRI
1003865,Zagorskaya PSPP,Hydro,,,,1200,,"PJSC ""RusHydro""",Operational,,"1,860",,,,,,,,56.482222,38.185556,,EnergyBase (RUS),https://energybase.ru/power-plant/Zagorskaya_PSPs,,,,,,,,,,,,Russia,,WRI
1003869,Zeyskaya HPP,Hydro,,,,1330,,"PJSC ""RusHydro""",Operational,,"6,428",,,,,,,,53.769806,127.305444,,EnergyBase (RUS),https://energybase.ru/power-plant/Zeya_HPP,,,,,,,,,,,,Russia,,WRI
1003734,Kolymskaya HPP,Hydro,,,,900,,"PJSC ""RusHydro""",Operational,,"1,558",,,,,,,,62.058333,150.416667,,EnergyBase (RUS),https://energybase.ru/power-plant/Kolyma_HPP,,,,,,,,,,,,Russia,,WRI
1003771,Novogorkovskaya CHP,Natural Gas,,CCGT,,548.3,1956,"Nizhny Novgorod branch of PJSC ""T Plus""",Operational / under construction,,,,,,,,,,56.106869,44.135408,1,EnergyBase (RUS),https://energybase.ru/power-plant/Novogorkovskaya_CHP,,,,,,,,,,,,Russia,,WRI
1003774,Novosibirskaya HPP,Hydro,,,,480,,"PJSC ""RusHydro""",Operational,,"2,118",,,,,,,,54.850278,82.986389,,EnergyBase (RUS),https://energybase.ru/power-plant/Novosibirsk_HPP,,,,,,,,,,,,Russia,,WRI
1003862,Yuzhnaya Tets,Natural Gas,fuel oil,,1 unit,1207,1978,"PJSC ""TGC-1""",Operational,,,,,,,,,,59.827586,30.451183,,EnergyBase (RUS),https://energybase.ru/power-plant/South_CHP-22,,,,,,,,,,,,Russia,,WRI
1061625,CHP-9,Natural Gas,,,,274.8,1933,"PJSC ""Mosenergo""",Operational,,,,,,,,,,55.705,37.65,,EnergyBase (RUS),https://energybase.ru/power-plant/CHP-9,,,,,,,,,,,,Russia,,
1061626,Avtovskaya CHP Plant-15,Natural Gas,fuel oil,,,321,1956,"PJSC ""TGC-1""",Operational,,,,,,,,,,59.870086,30.286883,,EnergyBase (RUS),https://energybase.ru/power-plant/Avtovskaya_CHP-15,,,,,,,,,,,,Russia,,
1061627,Vasileostrovskaya CHPP-7,Natural Gas,fuel oil,,,135,1932,"PJSC ""TGC-1""",Operational,,,,,,,,,,59.925278,30.246944,,EnergyBase (RUS),https://energybase.ru/power-plant/Vasilyeostrovskaya_CHP-7,,,,,,,,,,,,Russia,,
1061628,Vyborgskaya CHPP-17,Natural Gas,fuel oil,,,250.5,1954,"PJSC ""TGC-1""",Operational,,,,,,,,,,59.969444,30.376667,,EnergyBase (RUS),https://energybase.ru/power-plant/Vyborg_CHP-17,,,,,,,,,,,,Russia,,
1061629,Dubrovskaya TPP-8,Natural Gas,fuel oil,,,92,1933,"OOO ""DUBROVSKAYA HEAT STATION""",Operational,,,,,,,,,,59.868611,30.978889,,EnergyBase (RUS),https://energybase.ru/power-plant/Dubrovskaja_CHP-8,,,,,,,,,,,,Russia,,
1061630,Narva HPP,Hydro,,,,124.8,1955,"PJSC ""TGC-1""",Operational,,,,,,,,,,59.367778,28.210556,,EnergyBase (RUS),https://energybase.ru/power-plant/Narva_HPP,,,,,,,,,,,,Russia,,
1061631,Pervomaiskaya TPP-14,Natural Gas,fuel oil,,,524,1957,"PJSC ""TGC-1""",Operational,,,,,,,,,,59.873056,30.246667,,EnergyBase (RUS),https://energybase.ru/power-plant/Pervomayskaya_CHP-14,,,,,,,,,,,,Russia,,
1061632,CHP-5 Red October,Natural Gas,,,,,,"PJSC ""TGC-1""",,,,,,,,,,,59.8737,30.504,,EnergyBase (RUS),https://energybase.ru/power-plant/TEP-5_Krasnyj_Oktyabr,,,,,,,,,,,,Russia,,
1061633,Pravoberezhnaya CHPP-5,Natural Gas,fuel oil,,,643,1988,"PJSC ""TGC-1""",Operational,,,,,,,,,,59.874595,30.50354,,EnergyBase (RUS),https://energybase.ru/power-plant/Right_Bank_CHP-5,,,,,,,,,,,,Russia,,
1061634,Severnaya CHPP-21,Natural Gas,fuel oil,,,500,1975,"PJSC ""TGC-1""",Operational,,,,,,,,,,60.075833,30.474444,,EnergyBase (RUS),https://energybase.ru/power-plant/North_CHP-21,,,,,,,,,,,,Russia,,
1061635,Central Heat and Power Plant (ES-2),Natural Gas,fuel oil,,,155,1898,"PJSC ""TGC-1""",Operational,,,,,,,,,,59.934167,30.3875,,EnergyBase (RUS),https://energybase.ru/power-plant/central-chp-2,,,,,,,,,,,,Russia,,
1061636,Svetogorskaya HPP,Hydro,,,,122,1938,"PJSC ""TGC-1""",Operational,,,,,,,,,,61.1044,28.8394,,EnergyBase (RUS),https://energybase.ru/power-plant/Svetogorskaya_HPP,,,,,,,,,,,,Russia,,
1061637,Lesogorsky HPP,Hydro,,,,118,1934,"PJSC ""TGC-1""",Operational,,,,,,,,,,61.0585,28.8734,,EnergyBase (RUS),https://energybase.ru/power-plant/Lesogorskaya_HPP,,,,,,,,,,,,Russia,,
1061638,Volkhov HEPP,Hydro,,,,86,1926,"PJSC ""TGC-1""",Operational,,,,,,,,,,59.911667,32.343333,,EnergyBase (RUS),https://energybase.ru/power-plant/Volkhov_HPP,,,,,,,,,,,,Russia,,
1061639,Nizhne-Svirskaya HPP,Hydro,,,,99,1933,"PJSC ""TGC-1""",Operational,,,,,,,,,,60.806389,33.704444,,EnergyBase (RUS),https://energybase.ru/power-plant/Lower-Svirsky_HPP,,,,,,,,,,,,Russia,,
1061640,Petrozavodsk cogeneration station,Natural Gas,fuel oil,,,280,1976,"PJSC ""TGC-1""",Operational,,,,,,,,,,61.803611,34.275556,,EnergyBase (RUS),https://energybase.ru/power-plant/Petrozavodsk_CHP,,,,,,,,,,,,Russia,,
1061641,Kondopoga Hydroelectric Power Station,Hydro,,,,25.6,1929,"PJSC ""TGC-1""",Operational,,,,,,,,,,62.194833,34.26175,,EnergyBase (RUS),https://energybase.ru/power-plant/Kondopozhskaya_HPP,,,,,,,,,,,,Russia,,
1061642,Paleozerskaya HPP,Hydro,,,,25,1954,"PJSC ""TGC-1""",Operational,,,,,,,,,,62.484083,33.673694,,EnergyBase (RUS),https://energybase.ru/power-plant/Palieozersky_HPP,,,,,,,,,,,,Russia,,
1061643,Putkinskaya HPP,Hydro,,,,84,1970,"PJSC ""TGC-1""",Operational,,,,,,,,,,64.940743,34.540672,,EnergyBase (RUS),https://energybase.ru/power-plant/Putkinskaya_HPP,,,,,,,,,,,,Russia,,
1061644,Poduzhemskaya HPP,Hydro,,,,48,1971,"PJSC ""TGC-1""",Operational,,,,,,,,,,64.911667,34.261667,,EnergyBase (RUS),https://energybase.ru/power-plant/Poduzhemskaya_HPP,,,,,,,,,,,,Russia,,
1061645,Yushkozerskaya HPP,Hydro,,,,18,1980,"PJSC ""TGC-1""",Operational,,,,,,,,,,64.83,32.008333,,EnergyBase (RUS),https://energybase.ru/power-plant/Yushkozerskaya_HPP,,,,,,,,,,,,Russia,,
1061646,Krivoporozhskaya HPP,Hydro,,,,180,1990,"PJSC ""TGC-1""",Operational,,,,,,,,,,65.033417,33.667528,,EnergyBase (RUS),https://energybase.ru/power-plant/Krivoporozhskaya_HPP,,,,,,,,,,,,Russia,,
1061647,Apatitskaya TPP,Coal,,,,266,1959,"PJSC ""TGC-1""",Operational,,,,,,,,,,67.598056,33.422778,,EnergyBase (RUS),https://energybase.ru/power-plant/Apatity_CHP,,,,,,,,,,,,Russia,,
1061648,Murmansk TEZ,fuel oil,,,,12,1934,"PJSC ""TGC-1""",Operational,,,,,,,,,,68.958056,33.059167,,EnergyBase (RUS),https://energybase.ru/power-plant/Murmanskaya_CHP,,,,,,,,,,,,Russia,,
1061649,Niva GES-1,Hydro,,,,26,1952,"PJSC ""TGC-1""",Operational,,,,,,,,,,67.381222,32.527306,,EnergyBase (RUS),https://energybase.ru/power-plant/Niva_HPP-1,,,,,,,,,,,,Russia,,
1061650,Niva GES-2,Hydro,,,,60,1934,"PJSC ""TGC-1""",Operational,,,,,,,,,,67.281611,32.459806,,EnergyBase (RUS),https://energybase.ru/power-plant/Niva_HPP-2,,,,,,,,,,,,Russia,,
1061651,Niva GES-3,Hydro,,,,155.5,1949,"PJSC ""TGC-1""",Operational,,,,,,,,,,67.220278,32.438333,,EnergyBase (RUS),https://energybase.ru/power-plant/Niva_HPP-3,,,,,,,,,,,,Russia,,
1061652,Kumskaya HPP,Hydro,,,,80,1963,"PJSC ""TGC-1""",Operational,,,,,,,,,,66.360833,31.091389,,EnergyBase (RUS),https://energybase.ru/power-plant/Kuma_HPP,,,,,,,,,,,,Russia,,
1061653,Iovskaya HPP,Hydro,,,,96,1960,"PJSC ""TGC-1""",Operational,,,,,,,,,,66.669167,31.389444,,EnergyBase (RUS),https://energybase.ru/power-plant/Iovskaya_HPP,,,,,,,,,,,,Russia,,
1061654,Knyazhegub Hydroelectric Power Plant,Hydro,,,,152,1955,"PJSC ""TGC-1""",Operational,,,,,,,,,,66.863806,32.376028,,EnergyBase (RUS),https://energybase.ru/power-plant/Knyazhegubskaya_HPP,,,,,,,,,,,,Russia,,
1061655, ,Hydro,,,,30.5,1950,"PJSC ""TGC-1""",Operational,,,,,,,,,,68.971667,28.780278,,EnergyBase (RUS),https://energybase.ru/power-plant/Yaniskoski_HPP,,,,,,,,,,,,Russia,,
1061656,Rajakoski HPP,Hydro,,,,43.2,1955,"PJSC ""TGC-1""",Operational,,,,,,,,,,69.022778,29.005556,,EnergyBase (RUS),https://energybase.ru/power-plant/Rajakoski_HPP,,,,,,,,,,,,Russia,,
1061657,Kaitakoski HPP,Hydro,,,,11.2,1959,"PJSC ""TGC-1""",Operational,,,,,,,,,,68.938611,28.600556,,EnergyBase (RUS),https://energybase.ru/power-plant/Kaitakoski_HPP,,,,,,,,,,,,Russia,,
1061658,Borisoglebskaya HPP,Hydro,,,,56,1962,"PJSC ""TGC-1""",Operational,,,,,,,,,,69.643333,30.1375,,EnergyBase (RUS),https://energybase.ru/power-plant/Borisoglebskaya_HPP,,,,,,,,,,,,Russia,,
1061659,Hevasaski hydroelectric power station,Hydro,,,,47,1970,"PJSC ""TGC-1""",Operational,,,,,,,,,,69.1175,29.241944,,EnergyBase (RUS),https://energybase.ru/power-plant/Hevaskoski_HPP,,,,,,,,,,,,Russia,,
1061660,Serebryanskaya HPP-1,Hydro,,,,204.9,1970,"PJSC ""TGC-1""",Operational,,,,,,,,,,68.842554,35.568323,,EnergyBase (RUS),https://energybase.ru/power-plant/Serebryanska_HPP-1,,,,,,,,,,,,Russia,,
1061661,Serebryanskaya HPP-2,Hydro,,,,150,1972,"PJSC ""TGC-1""",Operational,,,,,,,,,,68.986944,35.697778,,EnergyBase (RUS),https://energybase.ru/power-plant/Serebryanska_HPP-2,,,,,,,,,,,,Russia,,
1061662,Verkterteriberskaya HPP,Hydro,,,,130,1984,"PJSC ""TGC-1""",Operational,,,,,,,,,,69.091231,35.041816,,EnergyBase (RUS),https://energybase.ru/power-plant/Verhneteriberskaya_HPP,,,,,,,,,,,,Russia,,
1061663,Nizhneteriberskaya HPP,Hydro,,,,26.5,1987,"PJSC ""TGC-1""",Operational,,,,,,,,,,69.125278,35.146944,,EnergyBase (RUS),https://energybase.ru/power-plant/Nizhneteriberskaya_HPP,,,,,,,,,,,,Russia,,
1061664,Nizhnetulomskaya HPP,Hydro,,,,52.7,1937,"PJSC ""TGC-1""",Operational,,,,,,,,,,68.821667,32.819167,,EnergyBase (RUS),https://energybase.ru/power-plant/Nizhnetulomskaya_HPP,,,,,,,,,,,,Russia,,
1061665,Verkhnetulomskaya HPP,Hydro,,,,268,1964,"PJSC ""TGC-1""",Operational,,,,,,,,,,68.606667,31.747778,,EnergyBase (RUS),https://energybase.ru/power-plant/Verhnetulomskaya_HPP,,,,,,,,,,,,Russia,,
1061666,Kashirskaya GRES,"Natural Gas, Coal","natural gas, fuel oil",,,1910,1919,JSC INTER RAO-Electric Power Generation,Operational,,,,,,,,,,54.858056,38.259722,,EnergyBase (RUS),https://energybase.ru/power-plant/Kashrskaya_TPP,,,,,,,,,,,,Russia,,
1061667,Uglich HPP,Hydro,,,,120,1935,"PJSC ""RusHydro""",Operational,,,,,,,,,,57.5275,38.297778,,EnergyBase (RUS),https://energybase.ru/power-plant/Uglichskaya_HPP,,,,,,,,,,,,Russia,,
1061668,Rybinskaya HPP,Hydro,,,,366.4,1935,"PJSC ""RusHydro""",Operational,,,,,,,,,,58.082117,38.824908,,EnergyBase (RUS),https://energybase.ru/power-plant/Rybinskaya_HPP,,,,,,,,,,,,Russia,,
1061669,Miatlinskaya HPP,Hydro,,,,220,,"PJSC ""RusHydro""",Operational,,,,,,,,,,43.067222,46.83,,EnergyBase (RUS),https://energybase.ru/power-plant/Miatlinskaya_HPP,,,,,,,,,,,,Russia,,
1061670,Chiryurt HPP-2,Hydro,,,,9,,"PJSC ""RusHydro""",Operational,,,,,,,,,,43.189744,46.834817,,EnergyBase (RUS),https://energybase.ru/power-plant/Chiryurtionskaya_HPP-2,,,,,,,,,,,,Russia,,
1061671,Chiryurt HPP-1,Hydro,,,,72,,"PJSC ""RusHydro""",Operational,,,,,,,,,,43.183056,46.834167,,EnergyBase (RUS),https://energybase.ru/power-plant/Chiryurtionskaya_HPP-1,,,,,,,,,,,,Russia,,
1061672,Chirkey HPP,Hydro,,,,1000,,"PJSC ""RusHydro""",Operational,,,,,,,,,,42.9772,46.8708,,EnergyBase (RUS),https://energybase.ru/power-plant/Chirkei_HPP,,,,,,,,,,,,Russia,,
1061673,Mainskaya HPP,Hydro,,,,321,,"PJSC ""RusHydro""",Operational,,,,,,,,,,52.970375,91.495518,,EnergyBase (RUS),https://energybase.ru/power-plant/Mainskaya_HPP,,,,,,,,,,,,Russia,,
1061674,Khorobrovskaya SHPP,Hydro,,,,0.16,,"PJSC ""RusHydro""",Operational,,,,,,,,,,56.875755,38.244065,,EnergyBase (RUS),https://energybase.ru/power-plant/Khorobrovskaya_SHPP,,,,,,,,,,,,Russia,,
1061675,Irganayskaya HPP,Hydro,,,,400,,"PJSC ""RusHydro""",Operational,,,,,,,,,,42.7452,46.8316,,EnergyBase (RUS),https://energybase.ru/power-plant/Irganayskaya_HPP,,,,,,,,,,,,Russia,,
1061676,Maginskaya SHPP,Hydro,,,,1.2,,"PJSC ""RusHydro""",Operational,,,,,,,,,,,,,EnergyBase (RUS),https://energybase.ru/power-plant/Maginskaya_SHPP,,,,,,,,,,,,Russia,,
1061677,Gelbakh HEPP,Hydro,,,,44,,"PJSC ""RusHydro""",Operational,,,,,,,,,,43.154103,46.852119,,EnergyBase (RUS),https://energybase.ru/power-plant/Gelbakhskaya_HPP,,,,,,,,,,,,Russia,,
1061678,Agulskaya SHPP,Hydro,,,,0.6,,"PJSC ""RusHydro""",Operational,,,,,,,,,,,,,EnergyBase (RUS),https://energybase.ru/power-plant/Agul_SHPP,,,,,,,,,,,,Russia,,
1061679,Ahtynskaya SHPP,Hydro,,,,1.8,,"PJSC ""RusHydro""",Operational,,,,,,,,,,41.777756,48.293206,,EnergyBase (RUS),https://energybase.ru/power-plant/Ahtynskogo_SHPP,,,,,,,,,,,,Russia,,
1061680,Gunibskaya HPP,Hydro,,,,15,,"PJSC ""RusHydro""",Operational,,,,,,,,,,42.431806,46.987861,,EnergyBase (RUS),https://energybase.ru/power-plant/Gunibskaya_HPP,,,,,,,,,,,,Russia,,
1061681,Kurushskaya SHPP,Hydro,,,,0.5,,"PJSC ""RusHydro""",Operational,,,,,,,,,,42.455436,47.032578,,EnergyBase (RUS),https://energybase.ru/power-plant/Kurushskaya_SHPP,,,,,,,,,,,,Russia,,
1061682,Arakulskaya SHPP,Hydro,,,,1.4,,"PJSC ""RusHydro""",Operational,,,,,,,,,,,,,EnergyBase (RUS),https://energybase.ru/power-plant/Arakulskaya_SHPP,,,,,,,,,,,,Russia,,
1061683,Amsar SHPP,Hydro,,,,1,,"PJSC ""RusHydro""",Operational,,,,,,,,,,,,,EnergyBase (RUS),https://energybase.ru/power-plant/Amsarskaya_SHPP,,,,,,,,,,,,Russia,,
1061684,Gergebilskaya HPP,Hydro,,,,17.8,,"PJSC ""RusHydro""",Operational,,,,,,,,,,42.454167,47.031667,,EnergyBase (RUS),https://energybase.ru/power-plant/Gergebilskaya_HPP,,,,,,,,,,,,Russia,,
1061685,Dzau HPS,Hydro,,,,8,,"PJSC ""RusHydro""",Operational,,,,,,,,,,43.00995,44.6861,,EnergyBase (RUS),https://energybase.ru/power-plant/Dzau_HPP,,,,,,,,,,,,Russia,,
1061686,Zelenchukskaya HPP-PSPP,Hydro,,,,320,,"PJSC ""RusHydro""",Operational,,,,,,,,,,43.898333,41.8825,,EnergyBase (RUS),https://energybase.ru/power-plant/Zelenchukskiye_HPP,,,,,,,,,,,,Russia,,
1061687,MGES-3 on the Baksan-Malka Canal,Hydro,,,,3.5,,"PJSC ""RusHydro""",Operational,,,,,,,,,,,,,EnergyBase (RUS),https://energybase.ru/power-plant/SHP-3_channel_Baksan-Malka,,,,,,,,,,,,Russia,,
1061688,Akbashskaya SHPP,Hydro,,,,1,,"PJSC ""RusHydro""",Operational,,,,,,,,,,,,,EnergyBase (RUS),https://energybase.ru/power-plant/Akbashsky_SHPP,,,,,,,,,,,,Russia,,
1061689,Kashhatau HPP of the Cascade of Nizhne-Cherekskiye HPPs,Hydro,,,,65.1,,"PJSC ""RusHydro""",Operational,,,,,,,,,,43.330417,43.646333,,EnergyBase (RUS),https://energybase.ru/power-plant/Kashhatau_HPP_Cascade_Nizhnechereksky_HPP,,,,,,,,,,,,Russia,,
1061690,Aushegerskaya HPP of the Cascade of Nizhne-Cherekskiye HPPs,Hydro,,,,60,,"PJSC ""RusHydro""",Operational,,,,,,,,,,43.3525,43.7175,,EnergyBase (RUS),https://energybase.ru/power-plant/Aushiger_HPP_Cascade_Nizhnechereksky_HPP,,,,,,,,,,,,Russia,,
1061691,Mukholskaya SHPP,Hydro,,,,0.9,,"PJSC ""RusHydro""",Operational,,,,,,,,,,43.116488,43.437291,,EnergyBase (RUS),https://energybase.ru/power-plant/Mukholskaya_SHPP,,,,,,,,,,,,Russia,,
1061692,Baksanskaya HPP,Hydro,,,,27,,"PJSC ""RusHydro""",Operational,,,,,,,,,,43.655108,43.396908,,EnergyBase (RUS),https://energybase.ru/power-plant/Baksan_HPP,,,,,,,,,,,,Russia,,
1061693,Shinazskaya SHPP,Hydro,,,,1.4,,"PJSC ""RusHydro""",Operational,,,,,,,,,,,,,EnergyBase (RUS),https://energybase.ru/power-plant/Shinazskaya_SHPP,,,,,,,,,,,,Russia,,
1061694,Sengileevskaya HPP of the Cascade of the Kuban HPPs,Hydro,,,,15,,"PJSC ""RusHydro""",Operational,,,,,,,,,,45.017486,41.672675,,EnergyBase (RUS),https://energybase.ru/power-plant/Sengileevskaya_Kuban_HPP_HPP_Cascade,,,,,,,,,,,,Russia,,
1061695,The hydroelectric power station of the Cascade of Kuban hydroelectric power stations,Hydro,,,,15.9,,"PJSC ""RusHydro""",Operational,,,,,,,,,,44.226944,42.343611,,EnergyBase (RUS),https://energybase.ru/power-plant/PSPs_Kuban_HPP_Cascade,,,,,,,,,,,,Russia,,
1061696,HPP-4 of the Cascade of Kuban HPPs,Hydro,,,,78,,"PJSC ""RusHydro""",Operational,,,,,,,,,,44.664722,42.028611,,EnergyBase (RUS),https://energybase.ru/power-plant/HPP-4_Kuban_HPP_Cascade,,,,,,,,,,,,Russia,,
1061697,GES-3 of the Cascade of Kuban HPPs,Hydro,,,,87,,"PJSC ""RusHydro""",Operational,,,,,,,,,,44.600556,42.231944,,EnergyBase (RUS),https://energybase.ru/power-plant/HPP-3_Kuban_HPP_Cascade,,,,,,,,,,,,Russia,,
1061698,HPP-2 of the Cascade of the Kuban HPPs,Hydro,,,,184,,"PJSC ""RusHydro""",Operational,,,,,,,,,,44.339722,42.506667,,EnergyBase (RUS),https://energybase.ru/power-plant/HPP-2_Kuban_HPP_Cascade,,,,,,,,,,,,Russia,,
1061699,GES-1 of the Cascade of the Kuban HPPs,Hydro,,,,37,,"PJSC ""RusHydro""",Operational,,,,,,,,,,44.276389,42.472222,,EnergyBase (RUS),https://energybase.ru/power-plant/HPP-1_Cascade_of_Kuban_HPP,,,,,,,,,,,,Russia,,
1061700,Kora-Ursdonskaya SHPP,Hydro,,,,0.6,,"PJSC ""RusHydro""",Operational,,,,,,,,,,,,,EnergyBase (RUS),https://energybase.ru/power-plant/Cora_Ursdonskaya_SHPP,,,,,,,,,,,,Russia,,
1061701,Bekanskaya SHPP,Hydro,,,,0.5,,"PJSC ""RusHydro""",Operational,,,,,,,,,,,,,EnergyBase (RUS),https://energybase.ru/power-plant/Bekanskaya_SHPP,,,,,,,,,,,,Russia,,
1061702,Ezminskaya HPP,Hydro,,,,45,,"PJSC ""RusHydro""",Operational,,,,,,,,,,42.7662,44.6326,,EnergyBase (RUS),https://energybase.ru/power-plant/Ezminskaya_HPP,,,,,,,,,,,,Russia,,
1061703,Gizeldonskaya HPP,Hydro,,,,22.8,,"PJSC ""RusHydro""",Operational,,,,,,,,,,42.9025,44.4601,,EnergyBase (RUS),https://energybase.ru/power-plant/Gizeldonskaya_HPP,,,,,,,,,,,,Russia,,
1061704,Ozernovskaya Diesel Power Plant,fuel oil,,,,1.57,,"PJSC ""RusHydro""",Operational,,,,,,,,,,51.491389,156.506389,,EnergyBase (RUS),https://energybase.ru/power-plant/DES_Ozernovo,,,,,,,,,,,,Russia,,
1061708,Svistukhinskaya HPP of the Cascade of Kuban HPPs,Hydro,,,,11.76,,"PJSC ""RusHydro""",Operational,,,,,,,,,,44.741667,41.901111,,EnergyBase (RUS),https://energybase.ru/power-plant/Svistukhinskaya_Kuban_HPP_HPP_Cascade,,,,,,,,,,,,Russia,,
1061709,Novotroitskaya HPP of the Cascade of the Kuban HPPs,Hydro,,,,3.68,,"PJSC ""RusHydro""",Operational,,,,,,,,,,45.315556,41.531111,,EnergyBase (RUS),https://energybase.ru/power-plant/Novotroitskaya_Kuban_HPP_HPP_Cascade,,,,,,,,,,,,Russia,,
1061710,Egorylykskaya HPP-2 of the Cascade of Kuban HPPs,Hydro,,,,14.2,,"PJSC ""RusHydro""",Operational,,,,,,,,,,45.110833,41.550556,,EnergyBase (RUS),https://energybase.ru/power-plant/Egorlykskaya_HPP-2_Kuban_HPP_Cascade,,,,,,,,,,,,Russia,,
1061711,Egorylykskaya HPP of the Cascade of Kuban HPPs,Hydro,,,,30,,"PJSC ""RusHydro""",Operational,,,,,,,,,,45.068333,41.596667,,EnergyBase (RUS),https://energybase.ru/power-plant/Egorlykskaya_Kuban_HPP_HPP_Cascade,,,,,,,,,,,,Russia,,
1061712,The head HPP of the Ardon cascade of Zaramagh hydroelectric power stations,Hydro,,,,15,,"PJSC ""RusHydro""",Operational,,,,,,,,,,42.705278,43.974444,,EnergyBase (RUS),https://energybase.ru/power-plant/Head_HPP_cascade_Ardon_Zaramagskie_HPP,,,,,,,,,,,,Russia,,
1061713,Pavlodolskaya HPP,Hydro,,,,2.62,,"PJSC ""RusHydro""",Operational,,,,,,,,,,43.708455,44.517579,,EnergyBase (RUS),https://energybase.ru/power-plant/Pavlodolskaya_HPP,,,,,,,,,,,,Russia,,
1061714,GES-1 of the Cascade of HPPs on the Tolmachyov River,Hydro,,,,2,,"PJSC ""RusHydro""",Operational,,,,,,,,,,52.776944,157.573889,,EnergyBase (RUS),https://energybase.ru/power-plant/HPP-1_HPP_Cascade_River_Tolmachev,,,,,,,,,,,,Russia,,
1061715,HPP-2 Cascade HPP on the Tolmachyov River,Hydro,,,,24.8,,"PJSC ""RusHydro""",Operational,,,,,,,,,,52.601944,157.503056,,EnergyBase (RUS),https://energybase.ru/power-plant/HPP-2_HPP_Cascade_River_Tolmachev,,,,,,,,,,,,Russia,,
1061716,HPP-3 of the Cascade of HPPs on the Tolmachyov River,Hydro,,,,18.4,,"PJSC ""RusHydro""",Operational,,,,,,,,,,52.628056,157.446944,,EnergyBase (RUS),https://energybase.ru/power-plant/HPP-3_Cascade_HPP_on_the_river_Tolmachev,,,,,,,,,,,,Russia,,
1061717,DAL about Valaam,diesel,diesel,,,2,,"PJSC ""TGC-1""",Operational,,,,,,,,,,61.395,30.948333,,EnergyBase (RUS),https://energybase.ru/power-plant/DES_island_Valaam,,,,,,,,,,,,Russia,,
1061718,CHaryinskaya CHPP,Coal,,,,21,,"PJSC ""TGC-2""",Operational,,,,,,,,,,58.397844,45.477347,,EnergyBase (RUS),https://energybase.ru/power-plant/CHP_Sharyinskaya,,,,,,,,,,,,Russia,,
1061719,Tverskaya CHPP-1,Natural Gas,,,,17,,"OOO ""Tver Generation""",Operational,,,,,,,,,,56.852611,35.8575,,EnergyBase (RUS),https://energybase.ru/power-plant/Tverskaya_CHP-1,,,,,,,,,,,,Russia,,
1061720,Tverskaya CHPP-3,Coal,,,,170,,"OOO ""Tver Generation""",Operational,,,,,,,,,,56.904722,35.905833,,EnergyBase (RUS),https://energybase.ru/power-plant/Tverskaya_CHP-3,,,,,,,,,,,,Russia,,
1061721,Tverskaya CHPP-4,Natural Gas,,,,88,,"OOO ""Tver Generation""",Operational,,,,,,,,,,56.842472,35.962556,,EnergyBase (RUS),https://energybase.ru/power-plant/Tverskaya_CHP-4,,,,,,,,,,,,Russia,,
1061722,Vyshnevolotskaya CHPP,Natural Gas,,,,4,,"PJSC ""TGC-2""",Operational,,,,,,,,,,57.606389,34.563333,,EnergyBase (RUS),https://energybase.ru/power-plant/Vyshnevolotskaya_CHP,,,,,,,,,,,,Russia,,
1061723,Orekhovo-Zuevskaya CHPP (CHP-6 Mosenergo),Natural Gas,,,,24,,"OOO ""Orekhovo-Zuevskaya Teploset""",Operational,,,,,,,,,,,,,EnergyBase (RUS),https://energybase.ru/power-plant/CHP-6,,,,,,,,,,,,Russia,,
1061724,CHP-28,Natural Gas,,,,25,,"PJSC ""Mosenergo""",Operational,,,,,,,,,,55.891667,37.506111,,EnergyBase (RUS),https://energybase.ru/power-plant/CHP-28,,,,,,,,,,,,Russia,,
1061725,Voronezhskaya CHPP-2,Natural Gas,,,,127,1957,"PJSC ""Quadra - Power Generation""",Operational,,,,,,,,,,51.686715,39.157746,,EnergyBase (RUS),https://energybase.ru/power-plant/Voronezh_CHP-2,,,,,,,,,,,,Russia,,
1061726,Voronezhskaya CHPP-1,Natural Gas,,,,168,1933,"PJSC ""Quadra - Power Generation""",Operational / under construction,,,,,,,,,,51.626356,39.224346,,EnergyBase (RUS),https://energybase.ru/power-plant/Voronezh_CHP-1,,,,,,,,,,,,Russia,,
1061727,Klintsovskaya TPP,Natural Gas,fuel oil,,,12,1937,"PJSC ""KKS-Group""",Operational,,,,,,,,,,52.750133,32.254594,,EnergyBase (RUS),https://energybase.ru/power-plant/Klintsovskaya_CHP,,,,,,,,,,,,Russia,,
1061728,Bryansk state district power station,Natural Gas,coal,,,38,,Administration of Bryansk region,Operational,,,,,,,,,,53.216389,34.659167,,EnergyBase (RUS),https://energybase.ru/power-plant/Bryansk_TPP,,,,,,,,,,,,Russia,,
1061729,Kaluzhskaya CHP Plant-1,Natural Gas,fuel oil,,,41.8,1948,"PJSC ""Quadra - Power Generation""",Operational,,,,,,,,,,54.548023,36.261234,,EnergyBase (RUS),https://energybase.ru/power-plant/Kaluga_CHP-1,,,,,,,,,,,,Russia,,
1061730,Kursk cogeneration station-1,Natural Gas,"coal, fuel oil",,,125,1955,"PJSC ""Quadra - Power Generation""",Operational / under construction,,,,,,,,,,51.663591,36.114234,,EnergyBase (RUS),https://energybase.ru/power-plant/Kursk_CHP-1,,,,,,,,,,,,Russia,,
1061731,Kotovskaya TPP,Natural Gas,fuel oil,,,80,1964,CenterMetrocom-Energo JSC,Operational,,,,,,,,,,52.596759,41.528048,,EnergyBase (RUS),https://energybase.ru/power-plant/Kotovskaya_CHP,,,,,,,,,,,,Russia,,
1061732,Yelets Thermal Power Plant,Natural Gas,,,,67,1955,"PJSC ""Quadra - Power Generation""",Operational,,,,,,,,,,52.594694,38.514806,,EnergyBase (RUS),https://energybase.ru/power-plant/Eletskaya_CHP,,,,,,,,,,,,Russia,,
1061733,Lipetsk CHPP-2,Natural Gas,,,,515,1978,"PJSC ""Quadra - Power Generation""",Operational,,,,,,,,,,52.589647,39.494396,,EnergyBase (RUS),https://energybase.ru/power-plant/Lipetsk_CHP-2,,,,,,,,,,,,Russia,,
1061734,Smolenskaya CHPP-2,Natural Gas,,,,275,1973,"PJSC ""Quadra - Power Generation""",Operational,,,,,,,,,,54.771336,32.14385,,EnergyBase (RUS),https://energybase.ru/power-plant/Smolensk_CHP-2,,,,,,,,,,,,Russia,,
1061735,Dorogobuzhskaya TPP,Natural Gas,,,,128,1957,Administration of the Smolensk region,Operational,,,,,,,,,,54.987611,33.376083,,EnergyBase (RUS),https://energybase.ru/power-plant/Dorogobuzhskaya_CHP,,,,,,,,,,,,Russia,,
1061736,Livenskaya TPP,Natural Gas,,,,42,1958,"PJSC ""Quadra - Power Generation""",Operational,,,,,,,,,,52.409907,37.54303,,EnergyBase (RUS),https://energybase.ru/power-plant/Livenskaya_CHP,,,,,,,,,,,,Russia,,
1061737,Pervomaiskaya TPP,Natural Gas,,,,105,,"PJSC ""Quadra - Power Generation""",Operational,,,,,,,,,,54.033611,37.536083,,EnergyBase (RUS),https://energybase.ru/power-plant/Day_CHP,,,,,,,,,,,,Russia,,
1061738,Aleksinskaya TPP,Coal,,,,102,1941,"PJSC ""Quadra - Power Generation""",Operational / under construction,,,,,,,,,,54.493224,37.041639,,EnergyBase (RUS),https://energybase.ru/power-plant/Aleksinskaya_CHP,,,,,,,,,,,,Russia,,
1061739,Kirov TPP-1,Natural Gas,,,,10.3,1934,"Kirov branch of PJSC ""T Plus""",Operational,,,,,,,,,,58.621554,49.671614,,EnergyBase (RUS),https://energybase.ru/power-plant/Kirov_CHP-1,,,,,,,,,,,,Russia,,
1061740,Kirov TPP-3,Natural Gas,coal,,,385,1942,"Kirov branch of PJSC ""T Plus""",Operational,,,,,,,,,,58.555833,49.983056,,EnergyBase (RUS),https://energybase.ru/power-plant/Kirov_CHP-3,,,,,,,,,,,,Russia,,
1061741,Novocheboksarskaya CHPP-3,Natural Gas,fuel oil,,,370,1965,"Branch of Mari El and Chuvashia PJSC ""T Plus""",Operational / upgrading,,,,,,,,,,56.081972,47.512539,,EnergyBase (RUS),https://energybase.ru/power-plant/Novocheboksarsk_CHP-3,,,,,,,,,,,,Russia,,
1061742,Sarapulskaya TPP,Natural Gas,fuel oil,,,10.7,1944,"Udmurtsky branch of PJSC ""T Plus""",Operational,,,,,,,,,,56.449233,53.7714,,EnergyBase (RUS),https://energybase.ru/power-plant/Sarapulskaya_CHP,,,,,,,,,,,,Russia,,
1061743,Izhevsk CHP Plant-1,Natural Gas,fuel oil,,,290,1934,"Udmurtsky branch of PJSC ""T Plus""",Operational,,,,,,,,,,56.845381,53.178345,,EnergyBase (RUS),https://energybase.ru/power-plant/Izhevsk_CHP-1,,,,,,,,,,,,Russia,,
1061744,Vladimirskaya TPP-2 [boiler-house],Natural Gas,fuel oil,,,6,,"Vladimir Branch of PJSC ""T Plus""",Operational,,,,,,,,,,56.144778,40.454611,,EnergyBase (RUS),https://energybase.ru/power-plant/Vladimir_CHP-2,,,,,,,,,,,,Russia,,
1061745,Nizhny Novgorod state district power station,Natural Gas,,,,112,1925,"Open Society ""Volga""",Operational,,,,,,,,,,56.500833,43.586111,,EnergyBase (RUS),https://energybase.ru/power-plant/Nizhny_Novgorod_TPP,,,,,,,,,,,,Russia,,
1061746,Alekseevskaya CHPP-3,Natural Gas,,,,9,1955,"OJSC ""TGC-6""",,,,,,,,,,,,,,EnergyBase (RUS),https://energybase.ru/power-plant/Alekseevskaya_CHP-3,,,,,,,,,,,,Russia,,
1061747,Ivanovo TPP-3,Coal,,,,330,1974,"Ivanovo branch of PJSC ""T Plus""",Operational,,,,,,,,,,56.961367,41.10955,,EnergyBase (RUS),https://energybase.ru/power-plant/Ivanovo_CHP-3,,,,,,,,,,,,Russia,,
1061748,Ivanovo TPP-1,fuel oil,,,,12,1928,"Ivanovo branch of PJSC ""T Plus""",Operational,,,,,,,,,,57.032505,40.941066,,EnergyBase (RUS),https://energybase.ru/power-plant/Ivanovo_CHP-1,,,,,,,,,,,,Russia,,
1061749,Igumnovskaya TPP,Natural Gas,fuel oil,,,75,,"LLC ""Synthesis of OKA""",Operational,,,,,,,,,,56.251661,43.620039,,EnergyBase (RUS),https://energybase.ru/power-plant/Igumnovo_CHP,,,,,,,,,,,,Russia,,
1061750,Kuznetskaya CHPP-3,Coal,,,,4,,"ZAO ""GIDROMASH-GROUP""",Operational,,,,,,,,,,53.116587,46.599957,,EnergyBase (RUS),https://energybase.ru/power-plant/Kuznetsk_CHP-3,,,,,,,,,,,,Russia,,
1061751,Mednogorskaya TPP,Coal,,,,14,,"Orenburg Branch of PJSC ""T Plus""",Operational,,,,,,,,,,51.434643,57.572643,,EnergyBase (RUS),https://energybase.ru/power-plant/Mednogorskaya_CHP,,,,,,,,,,,,Russia,,
1061752,Volgogradskaya CHPP-2,Natural Gas,fuel oil,,,300,,OOO LUKOIL-Volgogradenergo,Operational,,,,,,,,,,48.503056,44.608889,,EnergyBase (RUS),https://energybase.ru/power-plant/Volgograd_CHP-2,,,,,,,,,,,,Russia,,
1061753,Volgograd state district power station,Natural Gas,,,,72,,OOO LUKOIL-Volgogradenergo,Operational,,,,,,,,,,48.567691,44.449847,,EnergyBase (RUS),https://energybase.ru/power-plant/Volgograd_TPP,,,,,,,,,,,,Russia,,
1061754,Central boiler-house [Astrakhan],Natural Gas,,,,235,2013,"OOO ""LUKOIL-Astrakhanenergo""",Operational,,,,,,,,,,46.419577,48.099604,,EnergyBase (RUS),https://energybase.ru/power-plant/Central_Boiler_Astrakhan,,,,,,,,,,,,Russia,,
1061755,Astrakhanskaya CHPP-2,Natural Gas,,,,380,,"OOO ""LUKOIL-Astrakhanenergo""",Operational,,,,,,,,,,46.332111,48.086139,,EnergyBase (RUS),https://energybase.ru/power-plant/Astrakhan_CHP-2,,,,,,,,,,,,Russia,,
1061756,Astrakhanskaya GRES,Natural Gas,,,,110,,"OOO ""LUKOIL-Astrakhanenergo""",Operational,,,,,,,,,,46.375278,48.088056,,EnergyBase (RUS),https://energybase.ru/power-plant/Astrakhan_TPP,,,,,,,,,,,,Russia,,
1061757,The Caspian Thermal Power Plant,Natural Gas,,,,18,,"LLC ""Dagestanenergo""",Operational,,,,,,,,,,42.884966,47.650334,,EnergyBase (RUS),https://energybase.ru/power-plant/Caspian_CHP,,,,,,,,,,,,Russia,,
1061758,Makhachkala TPP,Natural Gas,fuel oil,,,18,,"LLC ""Dagestanenergo""",Operational,,,,,,,,,,42.97459,47.530804,,EnergyBase (RUS),https://energybase.ru/power-plant/Makhachkala_CHP,,,,,,,,,,,,Russia,,
1061759,Kislovodskaya TPP,Natural Gas,,,,12,,OOO LUKOIL-Stavropolenergo,Operational,,,,,,,,,,43.908311,42.718221,,EnergyBase (RUS),https://energybase.ru/power-plant/Kislovodsk_CHP,,,,,,,,,,,,Russia,,
1061760,Rostov CHPP-2,Natural Gas,,,,160,,OOO LUKOIL-Rostovenergo,Operational,,,,,,,,,,47.216111,39.579444,,EnergyBase (RUS),https://energybase.ru/power-plant/Rostov_CHP-2,,,,,,,,,,,,Russia,,
1061761,Krasnodar TPP,Natural Gas,fuel oil,,,1120,,OOO LUKOIL-Kubanenergo,Operational,,,,,,,,,,45.017778,39.060833,,EnergyBase (RUS),https://energybase.ru/power-plant/Krasnodar_CHP,,,,,,,,,,,,Russia,,
1061762,Kamyshinskaya CHPP,Natural Gas,fuel oil,,,72,,OOO LUKOIL-Volgogradenergo,Operational,,,,,,,,,,50.111456,45.400497,,EnergyBase (RUS),https://energybase.ru/power-plant/Kamyshinskaya_CHP,,,,,,,,,,,,Russia,,
1061763,Volzhskaya CHPP-2,Natural Gas,fuel oil,,,220,,OOO LUKOIL-Volgogradenergo,Operational,,,,,,,,,,48.775,44.839722,,EnergyBase (RUS),https://energybase.ru/power-plant/Volga_CHP-2,,,,,,,,,,,,Russia,,
1061764,Volzhskaya HPP 1,Natural Gas,,,,541,,OOO LUKOIL-Volgogradenergo,Operational,,,,,,,,,,48.824167,44.817778,,EnergyBase (RUS),https://energybase.ru/power-plant/Volga_CHP-1,,,,,,,,,,,,Russia,,
1061765,Intinskaya TPP,Coal,fuel oil,,,18,1949,"Komi Branch of PJSC ""T Plus""",Operational,,,,,,,,,,66.041564,60.157249,,EnergyBase (RUS),https://energybase.ru/power-plant/Inta_CHP,,,,,,,,,,,,Russia,,
1061766,Volgogradskaya CHPP-3,Natural Gas,,,,296,,"Branch of JSC ""Caustic"" Volgogradskaya CHPP-3",Operational,,,,,,,,,,48.4575,44.668333,,EnergyBase (RUS),https://energybase.ru/power-plant/Volgograd_CHP-3,,,,,,,,,,,,Russia,,
1061767,Kamenskaya TPP,Natural Gas,fuel oil,,,34,,OOO LUKOIL-Rostovenergo,Operational,,,,,,,,,,48.321389,40.239444,,EnergyBase (RUS),https://energybase.ru/power-plant/Kamensky_CHP,,,,,,,,,,,,Russia,,
1061768,Volgodonsk cogeneration station-2,Natural Gas,,,,420,,OOO LUKOIL-Rostovenergo,Operational,,,,,,,,,,47.496083,42.210556,,EnergyBase (RUS),https://energybase.ru/power-plant/Volgodonskaya_CHP-2,,,,,,,,,,,,Russia,,
1061769,Chaikovskaya TPP,Coal,,,,200,1978,"Perm Branch of PJSC ""T Plus""",Operational,,,,,,,,,,56.728192,53.927658,,EnergyBase (RUS),https://energybase.ru/power-plant/Tchaikovsky_CHP,,,,,,,,,,,,Russia,,
1061770,Permskaya CHPP-9,Natural Gas,fuel oil,,,575,1957,"Perm Branch of PJSC ""T Plus""",Operational,,,,,,,,,,57.925,56.147222,,EnergyBase (RUS),https://energybase.ru/power-plant/Perm_CHP-9,,,,,,,,,,,,Russia,,
1061771,Kizelovskaya GRES-3,Coal,,,,23.6,1924,"Perm Branch of PJSC ""T Plus""",Operational,,,,,,,,,,58.866389,57.555556,,EnergyBase (RUS),https://energybase.ru/power-plant/Kizelovskaya_CHP-3,,,,,,,,,,,,Russia,,
1061772,Bereznikovskaya CHP Plant-10,Natural Gas,,,,27,,"Perm Branch of PJSC ""T Plus""",Operational,,,,,,,,,,59.387222,56.775278,,EnergyBase (RUS),https://energybase.ru/power-plant/Bereznikovskaya_CHP-10,,,,,,,,,,,,Russia,,
1061773,Nizhnetourinskaya GRES,"Coal, Natural Gas",,,,484,1948,"Sverdlovsk Branch of PJSC ""T Plus""",Operational,,,,,,,,,,58.614139,59.853694,,EnergyBase (RUS),https://energybase.ru/power-plant/Nizhnetouriskaya_TPP,,,,,,,,,,,,Russia,,
1061774,Kachkanar HPP,Natural Gas,fuel oil,,,50,,EVRAZ Kachkanarsky Ore Mining and Processing Enterprise,Operational,,,,,,,,,,58.706575,59.511888,,EnergyBase (RUS),https://energybase.ru/power-plant/Kachkanarskaya_CHP,,,,,,,,,,,,Russia,,
1061775,Krasnogorsk cogeneration station,Coal,natural gas,,,121,1939,"Sverdlovsk Branch of PJSC ""T Plus""",Operational,,,,,,,,,,56.36544,61.970143,,EnergyBase (RUS),https://energybase.ru/power-plant/Krasnogorskaja_CHP,,,,,,,,,,,,Russia,,
1061776,Bogoslovskaya TPP,Coal,,,,141,,OK Rusal,Operational,,,,,,,,,,59.781389,60.175556,,EnergyBase (RUS),https://energybase.ru/power-plant/theological_CHP,,,,,,,,,,,,Russia,,
1061777,Omskaya CHP Plant-5,Coal,,,,715,1980,"JSC ""TGC-11""",Operational / upgrading,,,,,,,,,,55.000789,73.484019,,EnergyBase (RUS),https://energybase.ru/power-plant/Omsk_CHP-5,,,,,,,,,,,,Russia,,
1061778,Omskaya TPP-4,Coal,,,,435,1965,"JSC ""TGC-11""",Operational,,,,,,,,,,55.083846,73.212091,,EnergyBase (RUS),https://energybase.ru/power-plant/Omsk_CHP-4,,,,,,,,,,,,Russia,,
1061779,Omskaya CHP Plant-3,Natural Gas,fuel oil,,,400.2,1954,"JSC ""TGC-11""",Operational / upgrading,,,,,,,,,,55.06736,73.258331,,EnergyBase (RUS),https://energybase.ru/power-plant/Omsk_CHP-3,,,,,,,,,,,,Russia,,
1061780,Tomsk TPP-1,Natural Gas,,,,14.7,,Tomsk Generation JSC,Operational,,,,,,,,,,56.482173,84.945101,,EnergyBase (RUS),https://energybase.ru/power-plant/Tomsk_CHP-1,,,,,,,,,,,,Russia,,
1061781,Tomsk TPP-3,Natural Gas,fuel oil,,,140,1988,Tomsk Generation JSC,Operational,,,,,,,,,,56.621111,85.042222,,EnergyBase (RUS),https://energybase.ru/power-plant/Tomsk_CHP-3,,,,,,,,,,,,Russia,,
1061782,Tomsk GRES-2,Coal,,,,331,1988,Tomsk Generation JSC,Operational,,,,,,,,,,56.473056,84.996389,,EnergyBase (RUS),https://energybase.ru/power-plant/Tomsk_TPP-2,,,,,,,,,,,,Russia,,
1061783,Barnaulskaya CHP Plant-3,Coal,,,,430,1982,"LLC ""Siberian Generating Company""",Operational,,,,,,,,,,53.335667,83.610083,,EnergyBase (RUS),https://energybase.ru/power-plant/Barnaul_CHP-3,,,,,,,,,,,,Russia,,
1061784,Kyzyl TPP,Coal,,,,17,1958,"JSC ""Yenisei TGC (TGC-13)""",Operational,,,,,,,,,,51.701667,94.544444,,EnergyBase (RUS),https://energybase.ru/power-plant/Kyzyl_CHP,,,,,,,,,,,,Russia,,
1061785,Ulan-Ude CHP-1,Coal,,,,148.77,1936,"PJSC ""TGC-14""",Operational,,,,,,,,,,51.832719,107.615083,,EnergyBase (RUS),https://energybase.ru/power-plant/Ulan-Ude_CHP-1,,,,,,,,,,,,Russia,,
1061786,Priargunskaya CHPP,Coal,,,,24,1956,"PJSC ""TGC-14""",Operational,,,,,,,,,,50.357209,119.095646,,EnergyBase (RUS),https://energybase.ru/power-plant/Priargunskaya_CHP,,,,,,,,,,,,Russia,,
1061787,Chita CHPP-1,Coal,,,,452.8,1965,"PJSC ""TGC-14""",Operational,,,,,,,,,,52.053889,113.3575,,EnergyBase (RUS),https://energybase.ru/power-plant/Chita_CHP-1,,,,,,,,,,,,Russia,,
1061788,Chita CHPP-2,Coal,,,,12,1936,"PJSC ""TGC-14""",Operational,,,,,,,,,,52.011732,113.51106,,EnergyBase (RUS),https://energybase.ru/power-plant/Chita_CHP-2,,,,,,,,,,,,Russia,,
1061789,Sherlovo thermal power station,Coal,,,,12,1961,"PJSC ""TGC-14""",Operational,,,,,,,,,,50.53691,116.31585,,EnergyBase (RUS),https://energybase.ru/power-plant/Sherlovogorsk_CHP,,,,,,,,,,,,Russia,,
1061790,Chulman TPP,Coal,,,,48,,"JSC ""FAR EASTERN GK"" (JSC ""DGK"")",Operational,,,,,,,,,,56.850357,124.909551,,EnergyBase (RUS),https://energybase.ru/power-plant/Chulmanskaya_CHP,,,,,,,,,,,,Russia,,
1061791,Khabarovsk cogeneration station-3,Coal,natural gas,,,720,,"JSC ""FAR EASTERN GK"" (JSC ""DGK"")",Operational,,,,,,,,,,48.571306,135.150944,,EnergyBase (RUS),https://energybase.ru/power-plant/CHP-3,,,,,,,,,,,,Russia,,
1061792,Khabarovsk TPP-1,Coal,natural gas,,,435,,"JSC ""FAR EASTERN GK"" (JSC ""DGK"")",Operational,,,,,,,,,,48.413611,135.1175,,EnergyBase (RUS),https://energybase.ru/power-plant/CHP-1,,,,,,,,,,,,Russia,,
1061793,May GRES,Coal,,,,80.85,,"JSC ""FAR EASTERN GK"" (JSC ""DGK"")",Operational,,,,,,,,,,49.005124,140.224686,,EnergyBase (RUS),https://energybase.ru/power-plant/The_May_TPP,,,,,,,,,,,,Russia,,
1061794,Mykolaiv TPP,Natural Gas,,,,130.6,,"JSC ""FAR EASTERN GK"" (JSC ""DGK"")",Operational,,,,,,,,,,53.134722,140.724389,,EnergyBase (RUS),https://energybase.ru/power-plant/Nikolaev_CHP,,,,,,,,,,,,Russia,,
1061795,Komsomolskaya CHPP-2,Coal,,,,240.5,,"JSC ""FAR EASTERN GK"" (JSC ""DGK"")",Operational,,,,,,,,,,50.540654,137.03717,,EnergyBase (RUS),https://energybase.ru/power-plant/Komsomolskaya_CHP-2,,,,,,,,,,,,Russia,,
1061796,Kamchatka CHPP-2,Natural Gas,fuel oil,,,163.2,,"JSC ""KAMCHATSKENERGO""",Operational,,,,,,,,,,53.011389,158.739444,,EnergyBase (RUS),https://energybase.ru/power-plant/Kamchatka_CHP-2,,,,,,,,,,,,Russia,,
1061797,Kamchatka CHPP-1,Natural Gas,fuel oil,,,229,,"JSC ""KAMCHATSKENERGO""",Operational,,,,,,,,,,52.969944,158.680556,,EnergyBase (RUS),https://energybase.ru/power-plant/Kamchatka_CHP-1,,,,,,,,,,,,Russia,,
1061798,GTES of Vladivostokskaya CHPP-1,Natural Gas,,,,45,,"JSC ""FAR EASTERN GK"" (JSC ""DGK"")",Operational,,,,,,,,,,43.125833,131.878056,,EnergyBase (RUS),https://energybase.ru/power-plant/GTPP_Vladivostok_CHP-1,,,,,,,,,,,,Russia,,
1061799,Raichihinskaya GRES,Coal,,,,102,,"JSC ""FAR EASTERN GK"" (JSC ""DGK"")",Operational,,,,,,,,,,49.748222,129.692187,,EnergyBase (RUS),https://energybase.ru/power-plant/Raichikhino_TPP,,,,,,,,,,,,Russia,,
1061800,Chaunskaya CHPP,Coal,,,,34.5,,"JSC ""Chukotenergo""",Operational,,,,,,,,,,69.704444,170.290278,,EnergyBase (RUS),https://energybase.ru/power-plant/Chaun_CHP,,,,,,,,,,,,Russia,,
1061801,Novikovskaya Diesel Power Plant,fuel oil,,,,4.8,,"JSC ""SAKHALINENERGO""",Operational,,,,,,,,,,46.367957,143.352957,,EnergyBase (RUS),https://energybase.ru/power-plant/DES_Novikovskaya,,,,,,,,,,,,Russia,,
1061802,Yuzhno-Sakhalinsk TPP-1,Coal,,,,592.8,,"JSC ""SAKHALINENERGO""",Operational,,,,,,,,,,46.998056,142.742222,,EnergyBase (RUS),https://energybase.ru/power-plant/Yuzhno-Sakhalinsk_CHP-1,,,,,,,,,,,,Russia,,
1061803,Sakhalin SDPP,Coal,,,,84,,"JSC ""SAKHALINENERGO""",Operational,,,,,,,,,,48.97909,142.964058,,EnergyBase (RUS),https://energybase.ru/power-plant/Sakhalin_TPP,,,,,,,,,,,,Russia,,
1061804,Magadan Thermal Power Station,Coal,,,,96,,"PJSC ""Magadanenergo""",Operational,,,,,,,,,,59.583472,150.786944,,EnergyBase (RUS),https://energybase.ru/power-plant/Magadan_CHP,,,,,,,,,,,,Russia,,
1061805,Arkagalinskaya state district power station,Coal,,,,224,,"PJSC ""Magadanenergo""",Operational,,,,,,,,,,63.034167,147.180556,,EnergyBase (RUS),https://energybase.ru/power-plant/Argaklinskaya_TPP,,,,,,,,,,,,Russia,,
1061806,DPP JUES,fuel oil,,,,60.06,,Southern Electric Networks of Kamchatka,Operational,,,,,,,,,,,,,EnergyBase (RUS),https://energybase.ru/power-plant/DES_Southern_Electric,,,,,,,,,,,,Russia,,
1061807,Teploenergoservice,,,,,15.5,,"JSC ""Teploenergoservis""",Operational,,,,,,,,,,,,,EnergyBase (RUS),https://energybase.ru/power-plant/Teploenergoservice,,,,,,,,,,,,Russia,,
1061808,"Vilyuiskaya HPP (HPP-1, HPP-2)",Hydro,,,,680,,"PJSC ""Yakutskenergo""",Operational,,,,,,,,,,63.031458,112.473993,,EnergyBase (RUS),https://energybase.ru/power-plant/vilyuiskaya-hpp,,,,,,,,,,,,Russia,,
1061809,Yakutsk TPP,Natural Gas,,,,12,,"PJSC ""Yakutskenergo""",Operational,,,,,,,,,,62.044286,129.763856,,EnergyBase (RUS),https://energybase.ru/power-plant/Yakutsk_CHP,,,,,,,,,,,,Russia,,
1061810,Yakutsk SDPP,Natural Gas,,,,368,,"PJSC ""Yakutskenergo""",Operational,,,,,,,,,,62.059765,129.774284,,EnergyBase (RUS),https://energybase.ru/power-plant/Yakutsk_TPP,,,,,,,,,,,,Russia,,
1061811,Novo-Sterlitamak TPP,Natural Gas,fuel oil,,,225,1977,"LLC ""Bashkir Generation Company""",Operational,,,,,,,,,,53.666142,55.884919,,EnergyBase (RUS),https://energybase.ru/power-plant/Novo_Sterlitamak_CHP,,,,,,,,,,,,Russia,,
1061812,Gas turbine power station of Shaksha,Natural Gas,,,,10,,"LLC ""Bashkir distribution heat networks""",Operational,,,,,,,,,,54.764255,56.245655,,EnergyBase (RUS),https://energybase.ru/power-plant/GTU_CHP_Shaksha,,,,,,,,,,,,Russia,,
1061813,Novosibirsk CHP-2,Coal,,,,340,,"JSC ""Sibeco""",Operational,,,,,,,,,,54.999333,82.874278,,EnergyBase (RUS),https://energybase.ru/power-plant/Novosibirsk_CHP-2,,,,,,,,,,,,Russia,,
1061814,Barabinskaya TPP,Coal,,,,114,,"JSC ""Sibeco""",Operational,,,,,,,,,,55.447778,78.365556,,EnergyBase (RUS),https://energybase.ru/power-plant/Barabinskaya_CHP,,,,,,,,,,,,Russia,,
1061815,Test stand of Ivanovskaya GRES,Natural Gas,,,,110,,"PJSC ""Inter RAO""",Operational,,,,,,,,,,57.025224,40.384111,,EnergyBase (RUS),https://energybase.ru/power-plant/Testbed_of_Ivanovo_TPP,,,,,,,,,,,,Russia,,
1061816,Novo-Salavatskaya CHPP,Coal,,,,530,,"OOO ""Novo-Salavatskaya TEZ""",Operational / under construction,,,,,,,,,,53.423599,55.881271,,EnergyBase (RUS),https://energybase.ru/power-plant/Novo_Salavatskaya_CHP,,,,,,,,,,,,Russia,,
1061817,Nizhnekamsk hydroelectric power station,Hydro,,,,1205,,"JSC ""Tatenergo"" (JSC ""Generation Company"")",Operational,,,,,,,,,,55.699722,52.278611,,EnergyBase (RUS),https://energybase.ru/power-plant/Nizhnekamsk_HPP,,,,,,,,,,,,Russia,,
1061818,Naberezhnye Chelny Thermal Power Plant,Natural Gas,fuel oil,,,1180,,"JSC ""Tatenergo"" (JSC ""Generation Company"")",Operational,,,,,,,,,,55.690556,52.475833,,EnergyBase (RUS),https://energybase.ru/power-plant/Naberezhnye_Chelny_CHP,,,,,,,,,,,,Russia,,
1061819,Kazan CHP-2,Coal,,,,190,,"JSC ""Tatenergo"" (JSC ""Generation Company"")",Operational / under construction,,,,,,,,,,55.845278,49.060278,,EnergyBase (RUS),https://energybase.ru/power-plant/Kazan_CHP-2,,,,,,,,,,,,Russia,,
1061820,Kazan CHP-1,Natural Gas,fuel oil,,,220,,"JSC ""Tatenergo"" (JSC ""Generation Company"")",Operational,,,,,,,,,,55.76064,49.125538,,EnergyBase (RUS),https://energybase.ru/power-plant/Kazan_CHP-1,,,,,,,,,,,,Russia,,
1061821,Zainskaya GRES,Natural Gas,,,,2200,,"JSC ""Tatenergo"" (JSC ""Generation Company"")",Operational,,,,,,,,,,55.290278,52.022778,,EnergyBase (RUS),https://energybase.ru/power-plant/Zainskaya_TPP,,,,,,,,,,,,Russia,,
1061822,Novosibirsk TPP-5,Coal,,,,1200,,"JSC ""Sibeco""",Operational,,,,,,,,,,55.005556,83.060556,,EnergyBase (RUS),https://energybase.ru/power-plant/Novosibirsk_CHP-5,,,,,,,,,,,,Russia,,
1061823,Novosibirsk CHP-4,Coal,,,,384,,"JSC ""Sibeco""",Operational,,,,,,,,,,55.1,82.989444,,EnergyBase (RUS),https://energybase.ru/power-plant/Novosibirsk_CHP-4,,,,,,,,,,,,Russia,,
1061824,Novosibirsk CHP-3,Coal,,,,511.5,,"JSC ""Sibeco""",Operational,,,,,,,,,,55.008139,82.854,,EnergyBase (RUS),https://energybase.ru/power-plant/Novosibirsk_CHP-3,,,,,,,,,,,,Russia,,
1061825,Irkutsk CHP Plant-16,Coal,,,,18,,"PJSC ""IRKUTSKENERGO""",Operational,,,,,,,,,,56.569931,104.140708,,EnergyBase (RUS),https://energybase.ru/power-plant/Irkutsk_CHP-16,,,,,,,,,,,,Russia,,
1061826,Irkutsk TPP-5,Coal,,,,18,,"PJSC ""IRKUTSKENERGO""",Operational,,,,,,,,,,52.185067,104.090014,,EnergyBase (RUS),https://energybase.ru/power-plant/Irkutsk_CHP-5,,,,,,,,,,,,Russia,,
1061827,Irkutsk TPP-1,Coal,,,,185,,"PJSC ""IRKUTSKENERGO""",Operational,,,,,,,,,,52.565602,103.931734,,EnergyBase (RUS),https://energybase.ru/power-plant/Irkutsk_CHP-1,,,,,,,,,,,,Russia,,
1061828,Urussu GRES,Natural Gas,,,,161,1944,"CJSC ""TGC Urussinskaya GRES""",Operational / under construction,,,,,,,,,,54.599167,53.479167,,EnergyBase (RUS),https://energybase.ru/power-plant/Urussinskaya_TPP,,,,,,,,,,,,Russia,,
1061829,Nizhnekamsk cogeneration station-1,Natural Gas,fuel oil,,,880,,"OJSC ""TGC-16""",Operational,,,,,,,,,,55.606611,51.940389,,EnergyBase (RUS),https://energybase.ru/power-plant/Nizhnekamsk_CHP-1,,,,,,,,,,,,Russia,,
1061830,Kazan CHP 3,Natural Gas,,,,772.64,,"OJSC ""TGC-16""",Operational,,,,,,,,,,55.867389,48.952056,,EnergyBase (RUS),https://energybase.ru/power-plant/Kazan_CHP-3,,,,,,,,,,,,Russia,,
1061831,Nizhnekamsk cogeneration station-2,Natural Gas,fuel oil,,,724,,"OOO ""Nizhnekamsk COGENERATION STATION""",Operational,,,,,,,,,,55.606611,51.940389,,EnergyBase (RUS),https://energybase.ru/power-plant/Nizhnekamsk_CHP,,,,,,,,,,,,Russia,,
1061833,Irkutsk TPP-12,Coal,,,,7.5,,"PJSC ""IRKUTSKENERGO""",Operational,,,,,,,,,,53.123959,103.132573,,EnergyBase (RUS),https://energybase.ru/power-plant/Irkutsk_CHP-12,,,,,,,,,,,,Russia,,
1061834,Irkutsk TPP-11,Coal,,,,350.3,,"PJSC ""IRKUTSKENERGO""",Operational,,,,,,,,,,52.782429,103.602598,,EnergyBase (RUS),https://energybase.ru/power-plant/Irkutsk_CHP-11,,,,,,,,,,,,Russia,,
1061835,GTU-TPP Lyublino OAO MOEK,Natural Gas,,,,12,,"PJSC ""MOSCOW UNITED ENERGY COMPANY"" (MOEK)",Operational,,,,,,,,,,55.675286,37.787103,,EnergyBase (RUS),https://energybase.ru/power-plant/Gas_turbine_CHP_Ljublino_of_MIPC,,,,,,,,,,,,Russia,,
1061836,Mini Thermal Power Plant Izmaylovo OJSC MOEK,,,,,3,,"PJSC ""MOSCOW UNITED ENERGY COMPANY"" (MOEK)",Operational,,,,,,,,,,,,,EnergyBase (RUS),https://energybase.ru/power-plant/Mini_CHP_Izmailovo_of_MIPC,,,,,,,,,,,,Russia,,
1061837,Kurgan CHPP,Coal,,,,480,,OAO Kurgan Generation Company,Operational,,,,,,,,,,55.412987,65.231409,,EnergyBase (RUS),https://energybase.ru/power-plant/Kurgan_CHP,,,,,,,,,,,,Russia,,
1061838,Gusevskaya TPP,Natural Gas,fuel oil,,,15.5,,OAO Kaliningrad Generation Company,Operational,,,,,,,,,,54.591163,22.181842,,EnergyBase (RUS),https://energybase.ru/power-plant/Gusevskaya_CHP,,,,,,,,,,,,Russia,,
1061839,Svetlovskaya GRES-2,fuel oil,,,,20.8,,OAO Kaliningrad Generation Company,Operational,,,,,,,,,,54.664421,20.124123,,EnergyBase (RUS),https://energybase.ru/power-plant/Svetlovskaya_TPP-2,,,,,,,,,,,,Russia,,
1061840,West Siberian CHP,Coal,,,,600,,"JSC ""West-Siberian CHP""",Operational,,,,,,,,,,53.878556,87.234361,,EnergyBase (RUS),https://energybase.ru/power-plant/West_Siberian_CHP,,,,,,,,,,,,Russia,,
1061841,Biysk CHPP-1,Coal,,,,535,,"JSC ""BYYSKENERGO""",Operational,,,,,,,,,,52.491778,85.084806,,EnergyBase (RUS),https://energybase.ru/power-plant/Biyskaya_CHP-1,,,,,,,,,,,,Russia,,
1061842,Norilsk TPP-3,Coal,,,,440,1978,JSC Norilsk-Taimyr Energy Company (JSC NTEK),Operational,,,,,,,,,,69.322953,87.950976,,EnergyBase (RUS),https://energybase.ru/power-plant/CHP-3_of_NTPC,,,,,,,,,,,,Russia,,
1061843,Norilsk CHPP-2,Natural Gas,,,,425,1965,JSC Norilsk-Taimyr Energy Company (JSC NTEK),Operational,,,,,,,,,,69.51828,88.344189,,EnergyBase (RUS),https://energybase.ru/power-plant/HPP-2_OJSC_NTEC,,,,,,,,,,,,Russia,,
1061844,Norilsk TPP-1,Coal,,,,370,1942,JSC Norilsk-Taimyr Energy Company (JSC NTEK),Operational,,,,,,,,,,69.33418,88.231367,,EnergyBase (RUS),https://energybase.ru/power-plant/CHP-1_OJSC_NTEC,,,,,,,,,,,,Russia,,
1061845,CHPP of OAO Altai-koks,Natural Gas,,,,200,,OAO Altai-koks,Operational,,,,,,,,,,53.683368,84.989682,,EnergyBase (RUS),https://energybase.ru/power-plant/CHP_Altai,,,,,,,,,,,,Russia,,
1061847,Novo-Ryazan Thermal Power Station,Natural Gas,,,,425,,OOO NOVO-RJaZANSKAYA TEZ,Operational,,,,,,,,,,54.564905,39.766219,,EnergyBase (RUS),https://energybase.ru/power-plant/Novo-Ryazan_CHP,,,,,,,,,,,,Russia,,
1061848,Okhinskaya CHPP,Natural Gas,,,,99,,"JSC ""Okhinskaya CHPP""",Operational,,,,,,,,,,53.573328,142.909781,,EnergyBase (RUS),https://energybase.ru/power-plant/Ohinskaya_CHP,,,,,,,,,,,,Russia,,
1061849,Experimental TPP,Coal,,,,79.2,,"JSC ""Experimental TPP""",Operational,,,,,,,,,,47.871389,40.018611,,EnergyBase (RUS),https://energybase.ru/power-plant/experimental_TPP,,,,,,,,,,,,Russia,,
1061850,Southern Kuzbass Power Plant,Coal,,,,554,,"OAO ""Yuzhno-Kuzbasskaya GRES""",Operational,,,,,,,,,,53.511944,87.266944,,EnergyBase (RUS),https://energybase.ru/power-plant/Southern_Kuzbass_TPP,,,,,,,,,,,,Russia,,
1061851,Baltic NPP,Nuclear,,,,2388,,"JSC ""Concern Rosenergoatom""",not set,,,,,,,,,,54.939204,22.164717,,EnergyBase (RUS),https://energybase.ru/power-plant/Baltic_NPP,,,,,,,,,,,,Russia,,
1061852,Central Electric Networks of Kamchatskenergo,,,,,8.6,,"JSC ""KAMCHATSKENERGO""",Operational,,,,,,,,,,,,,EnergyBase (RUS),https://energybase.ru/power-plant/Central_Electric_Kamchatskenergo,,,,,,,,,,,,Russia,,
1061853,Western Electric Networks [Yakutskenergo],fuel oil,,,,78.5,,"PJSC ""Yakutskenergo""",Operational,,,,,,,,,,,,,EnergyBase (RUS),https://energybase.ru/power-plant/Western_Electric_YakutskEnergo,,,,,,,,,,,,Russia,,
1061854,Sakhaenergo Power Plants,fuel oil,,,,178.7,,Sakhaenergo JSC,Operational,,,,,,,,,,,,,EnergyBase (RUS),https://energybase.ru/power-plant/sakhaenergo-power-plants,,,,,,,,,,,,Russia,,
1061855,GTES URAL-4000 [GTU Agidel],Natural Gas,,,,8,,"LLC ""Bashkir distribution heat networks""",Operational,,,,,,,,,,55.899276,53.937943,,EnergyBase (RUS),https://energybase.ru/power-plant/GTPP_URAL-4000,,,,,,,,,,,,Russia,,
1061856,GTU Ishimbay,Natural Gas,,,,10,,"LLC ""Bashkir distribution heat networks""",Operational,,,,,,,,,,53.437381,56.030531,,EnergyBase (RUS),https://energybase.ru/power-plant/GTU_Ishimbai,,,,,,,,,,,,Russia,,
1061857,GTU Shigili,Natural Gas,,,,4,,"LLC ""Bashkir distribution heat networks""",Operational,,,,,,,,,,55.940837,58.273201,,EnergyBase (RUS),https://energybase.ru/power-plant/GTU_Shigili,,,,,,,,,,,,Russia,,
1061858,GPA ASSA,Natural Gas,,,,2.06,2004,"LLC ""Bashkir Generation Company""",Operational,,,,,,,,,,,,,EnergyBase (RUS),https://energybase.ru/power-plant/GPA_Assy,,,,,,,,,,,,Russia,,
1061859,GTU-TPP Kuryanovo OJSC MOEK,Natural Gas,,,,12,,"PJSC ""MOSCOW UNITED ENERGY COMPANY"" (MOEK)",Operational,,,,,,,,,,55.645853,37.698746,,EnergyBase (RUS),https://energybase.ru/power-plant/Gas_turbine_CHP_Kuryanovo_of_MIPC,,,,,,,,,,,,Russia,,
1061860,GTU-TPP of Penyagino OJSC MIPC,Natural Gas,,,,12,,"PJSC ""MOSCOW UNITED ENERGY COMPANY"" (MOEK)",Operational,,,,,,,,,,,,,EnergyBase (RUS),https://energybase.ru/power-plant/Gas_turbine_CHP_Penyagino_of_MIPC,,,,,,,,,,,,Russia,,
1061861,GTU-TPP Peredelkino OJSC MOEK,Natural Gas,,,,12,,"PJSC ""MOSCOW UNITED ENERGY COMPANY"" (MOEK)",Operational,,,,,,,,,,,,,EnergyBase (RUS),https://energybase.ru/power-plant/Gas_turbine_CHP_Peredelkino_of_MIPC,,,,,,,,,,,,Russia,,
1061862,TPPP PGGHO (Krasnokamenskaya TPP),Coal,,,,410,,"Joint-stock company ""United Heat Power Company"" (""OTEK"")",Operational,,,,,,,,,,50.08193,118.094187,,EnergyBase (RUS),https://energybase.ru/power-plant/CHP_PPGHO_Krasnokamenskaya,,,,,,,,,,,,Russia,,
1061863,Severskaya CHP (CHP CHPP),Coal,,,,699,,"JSC ""Siberian Chemical Combine""",Operational,,,,,,,,,,56.619457,84.81235,,EnergyBase (RUS),https://energybase.ru/power-plant/CHP_Siberian_Chemical,,,,,,,,,,,,Russia,,
1061864,[Tyumen region] Mobile power engineering,Natural Gas,,,,205,,"OJSC ""Mobile power engineering""",Operational,,,,,,,,,,,,,EnergyBase (RUS),https://energybase.ru/power-plant/Mobile_Power,,,,,,,,,,,,Russia,,
1061865,GTPP Krasnodar Territory,Natural Gas,,,,45,,"JSC ""Mobile GTES""",Operational,,,,,,,,,,,,,EnergyBase (RUS),https://energybase.ru/power-plant/GTPP_Krasnodar_region,,,,,,,,,,,,Russia,,
1061866,GTES in the Moscow region,Natural Gas,,,,225,,"JSC ""Mobile GTES""",Operational,,,,,,,,,,,,,EnergyBase (RUS),https://energybase.ru/power-plant/GTPP_Moscow_region,,,,,,,,,,,,Russia,,
1061867,GTES Moscow,Natural Gas,,,,67.5,,"JSC ""Mobile GTES""",Operational,,,,,,,,,,,,,EnergyBase (RUS),https://energybase.ru/power-plant/GTPP_Moscow,,,,,,,,,,,,Russia,,
1061868,Shakhtinskaya CHPP,Natural Gas,,,,100,1925,"LLC ""Shakhty Gas Turbine Power Plant"" (Holding ""Megapolis Group"")",Operational,,,,,,,,,,47.758333,40.299722,,EnergyBase (RUS),https://energybase.ru/power-plant/Shakhtynsk_CHP,,,,,,,,,,,,Russia,,
1061869,Tsimlyanskaya HPP,Hydro,,,,211.5,,"OOO ""LUKOIL-Ecoenergo""",Operational,,,,,,,,,,47.606111,42.112222,,EnergyBase (RUS),https://energybase.ru/power-plant/Tsymlyanskaya_HPP,,,,,,,,,,,,Russia,,
1061870,Maikop Hydropower Plant,Hydro,,,,9.44,,"OOO ""LUKOIL-Ecoenergo""",Operational,,,,,,,,,,44.592035,40.10524,,EnergyBase (RUS),https://energybase.ru/power-plant/Maikopskaya_HEPP,,,,,,,,,,,,Russia,,
1061871,Belorechenskaya HPP,Hydro,,,,48,,"OOO ""LUKOIL-Ecoenergo""",Operational,,,,,,,,,,44.892212,39.647877,,EnergyBase (RUS),https://energybase.ru/power-plant/Belorechenskaya_HPP,,,,,,,,,,,,Russia,,
1061872,Krasnopolyanskaya HPP,Hydro,,,,28.9,,"OOO ""LUKOIL-Ecoenergo""",Operational,,,,,,,,,,43.662861,40.174389,,EnergyBase (RUS),https://energybase.ru/power-plant/Krasnopolyanskaya_HPP,,,,,,,,,,,,Russia,,
1061873,Central Electric Networks [Yakutskenergo],fuel oil,,,,88.4,,"PJSC ""Yakutskenergo""",Operational,,,,,,,,,,,,,EnergyBase (RUS),https://energybase.ru/power-plant/Central_Electric_YakutskEnergo,,,,,,,,,,,,Russia,,
1061874,State Unitary Enterprise Krasnousolsk,Natural Gas,,,,1.95,2002,"LLC ""Bashkir Generation Company""",Operational,,,,,,,,,,53.919656,56.522448,,EnergyBase (RUS),https://energybase.ru/power-plant/GPA_Krasnousolsk,,,,,,,,,,,,Russia,,
1061875, ,Natural Gas,,,,0.97,2003,"LLC ""Bashkir Generation Company""",Operational,,,,,,,,,,54.617686,55.635195,,EnergyBase (RUS),https://energybase.ru/power-plant/GPA_Yumatovo,,,,,,,,,,,,Russia,,
1061876,GPA Yangantau,Natural Gas,,,,1.9,,"LLC ""Bashkir distribution heat networks""",Operational,,,,,,,,,,,,,EnergyBase (RUS),https://energybase.ru/power-plant/GPA_Yangantau,,,,,,,,,,,,Russia,,
1061877,GTU-TETS RTS3 [g. ZELENOGRAD] OAO MOEK,Natural Gas,,,,12,,"PJSC ""MOSCOW UNITED ENERGY COMPANY"" (MOEK)",Operational,,,,,,,,,,,,,EnergyBase (RUS),https://energybase.ru/power-plant/Gas_turbine_CHP_RTS_number_3,,,,,,,,,,,,Russia,,
1061878,Nyagan GRES,Natural Gas,,,,845.14,2008,"PJSC ""Fortum""",Operational / under construction,,,,,,,,,,62.20678,65.519514,,EnergyBase (RUS),https://energybase.ru/power-plant/Nyagan_TPP,,,,,,,,,,,,Russia,,
1061879,Kurgan CHPP-2,Natural Gas,,,,222,2014,"OOO ""Kurgan TEZ""",Operational,,,,,,,,,,55.490833,65.361111,,EnergyBase (RUS),https://energybase.ru/power-plant/Kurgan-CHP-2,,,,,,,,,,,,Russia,,
1061880,GTU-TETS,Natural Gas,,,,44,2008,ZAO GK-4,under construction,,,,,,,,,,48.600034,45.724679,,EnergyBase (RUS),https://energybase.ru/power-plant/GTU-CHP,,,,,,,,,,,,Russia,,
1061881,Sarov HPP-1,Natural Gas,fuel oil,,,72,1951,"CJSC ""Sarov Generation Company""",Operational,,,,,,,,,,54.9048,43.337942,,EnergyBase (RUS),https://energybase.ru/power-plant/Sarovskaya_CHP-1,,,,,,,,,,,,Russia,,
1061882,Avtozavodskaya TPP,Natural Gas,fuel oil,,,580,1931,"OOO ""Avtozavodskaya TEZ""",Operational / under construction,,,,,,,,,,56.242864,43.892311,,EnergyBase (RUS),https://energybase.ru/power-plant/Avtozavodskaya_CHP-1,,,,,,,,,,,,Russia,,
1061883,Ust-Khantai HPP,Hydro,,,,441,1963,JSC Norilsk-Taimyr Energy Company (JSC NTEK),Operational / upgrading,,,,,,,,,,68.089044,87.778407,,EnergyBase (RUS),https://energybase.ru/power-plant/Ust-Khantaiskaya-HPP,,,,,,,,,,,,Russia,,
1061884,Kureyskaya HPP,Hydro,,,,600,1975,JSC Norilsk-Taimyr Energy Company (JSC NTEK),Operational,,,,,,,,,,66.944149,88.338404,,EnergyBase (RUS),https://energybase.ru/power-plant/Kureyskaya-HPP,,,,,,,,,,,,Russia,,
1061891,Vankor GTPP,Natural Gas,,,,200,2007,Vankorneft JSC,Operational,,,,,,,,,,67.80356,83.532801,,EnergyBase (RUS),https://energybase.ru/power-plant/Vankor_GTPP,,,,,,,,,,,,Russia,,
1061892,Yamal LNG TPP,Natural Gas,,,,376,2013,OAO Yamal LNG,under construction,,,,,,,,,,71.26711,72.051945,,EnergyBase (RUS),https://energybase.ru/power-plant/Yamal_LNG_TPP,,,,,,,,,,,,Russia,,
