Power Plant ID,Name,Fuel,Secondary Fuel,Generator Technology,Units,Capacity (MW),Commissioning Date,Owner,Operational Status,Location,Annual Generation (GWh),Year of Data,Generation Data Source,Cooling Technology,Cooling Source,Fuel Consumption (g/kWh),CO2 Annual Reported,CO2 Specific Emissions (tCO2/MWh),Efficiency,Latitude,Longitude,Other,Source,URL,Source 2,URL 2,Peak Load (MW),Load Factor,Capacity Factor,Availability,Grid Connection (kV),Grid Balancing Area,Address,Municipality,Postal Code,Country,Natural Language,Geolocation Source
1000140,Tashkent,Natural Gas,,CCGT,,2230,2008,Uzbekenergo,,,,,,,,,,,,41.3822,69.3677,Renovations in 2008 changed it to a CCGT,Chibu Electric Provider,http://www.chuden.co.jp/english/corporate/press2004/0117_1.html,,,,,,,,,,,,Uzbekistan,,GEODB
1000141,Navoi,Natural Gas,,CCGT,,1758,1963-2012,Uzbekenergo,,,,,,,,,,,,40.1569,65.3104,Renovations in 2012 changed it to a CCGT,Asian Development Bank,http://www.carecprogram.org/ru/uploads/docs/Projects/TA/TA4029-UZB-Volume-1-Sections-I-III.pdf,,,,,,,,,,,,Uzbekistan,,GEODB
1000142,Talimardjan,Natural Gas,,CCGT,2,800,2014,Uzbekenergo,,440 km southwest of Tashkent,5624,,,,,,,,0.55,38.4809,65.6315,,Asian Development Bank,http://www.carecprogram.org/ru/uploads/docs/Projects/TA/TA4029-UZB-Volume-1-Sections-I-III.pdf,,,,,,,,,,,,Uzbekistan,,GEODB
1000145,Fergana,Oil,,CHP,,300,1956,Uzbekenergo,,,,,,,,,,,0.5960,40.449,71.782,,Asian Development Bank,http://www.carecprogram.org/ru/uploads/docs/Projects/TA/TA4029-UZB-Volume-1-Sections-I-III.pdf,,,,,,,,,,,,Uzbekistan,,GEODB
1000154,Mubarek,Natural Gas,,CHP,,60,1985,Uzbekenergo,,,,,,,,,,,0.7720,39.2552778,65.1527778,,Asian Development Bank,http://www.carecprogram.org/ru/uploads/docs/Projects/TA/TA4029-UZB-Volume-1-Sections-I-III.pdf,,,,,,,,,,,,Uzbekistan,,CARMA
1000151,Tuyamuin,Hydro,,Dam with Reservoir,,150,,Uzbekenergo,,Amuccudarya River Basin,,,,,,,,,,,,,Asian Development Bank,http://www.carecprogram.org/ru/uploads/docs/Projects/TA/TA4029-UZB-Volume-1-Sections-I-III.pdf,,,,,,,,,,,,Uzbekistan,,
1000152,Andijan,Hydro,,Dam with Reservoir,,140,1985,Uzbekenergo,,Karadarya River Basin,,,,,,,,,,,,,Asian Development Bank,http://www.carecprogram.org/ru/uploads/docs/Projects/TA/TA4029-UZB-Volume-1-Sections-I-III.pdf,,,,,,,,,,,,Uzbekistan,,
1000147,Khodjikent,Hydro,,Dam with Reservoir,,165,1976,Uzbekenergo,,Chirichik,,,,,,,,,,41.599,69.8644,,Asian Development Bank,http://www.carecprogram.org/ru/uploads/docs/Projects/TA/TA4029-UZB-Volume-1-Sections-I-III.pdf,,,,,,,,,,,,Uzbekistan,,GEODB
1000150,Akkavak,Hydro,,Dam with Reservoir,,39,,Uzbekenergo,,Chirichik,,,,,,,,,,41.4471,69.5578,,Asian Development Bank,http://www.carecprogram.org/ru/uploads/docs/Projects/TA/TA4029-UZB-Volume-1-Sections-I-III.pdf,,,,,,,,,,,,Uzbekistan,,GEODB
1000153,Farkhad,Hydro,,Dam with Reservoir,,126,1949,Uzbekenergo,,Sydarya River Basin,,,,,,,,,,40.1924,69.3048,,Asian Development Bank,http://www.carecprogram.org/ru/uploads/docs/Projects/TA/TA4029-UZB-Volume-1-Sections-I-III.pdf,,,,,,,,,,,,Uzbekistan,,GEODB
1000146,Charvak,Hydro,,Dam with Reservoir,,620,1972,Uzbekenergo,,Chirichik,,,,,,,,,,41.627,69.969,,Asian Development Bank,http://www.carecprogram.org/ru/uploads/docs/Projects/TA/TA4029-UZB-Volume-1-Sections-I-III.pdf,,,,,,,,,,,,Uzbekistan,,GEODB
1000148,Gazalkent,Hydro,,Dam with Reservoir,,120,1980,Uzbekenergo,,Chirichik,,,,,,,,,,41.558056,69.770833,,Asian Development Bank,http://www.carecprogram.org/ru/uploads/docs/Projects/TA/TA4029-UZB-Volume-1-Sections-I-III.pdf,,,,,,,,,,,,Uzbekistan,,CARMA
1000149,Tavak,Hydro,,Dam with Reservoir,,70,,Uzbekenergo,,Chirichik,,,,,,,,,,41.5541667,69.6811111,,Asian Development Bank,http://www.carecprogram.org/ru/uploads/docs/Projects/TA/TA4029-UZB-Volume-1-Sections-I-III.pdf,,,,,,,,,,,,Uzbekistan,,CARMA
1000138,Syrdarya,Natural Gas,,Sub-critical Thermal,10 units,3000,1972,Uzbekenergo,,,"16,000",,,,,,,,0.3320,40.2287,69.1005,,Asian Development Bank,http://www.carecprogram.org/ru/uploads/docs/Projects/TA/TA4029-UZB-Volume-1-Sections-I-III.pdf,,,,,,,,,,,,Uzbekistan,,GEODB
1000143,Takhiatash,Natural Gas,,Sub-critical Thermal,,730,1963,Uzbekenergo,,,,,,,,,,,0.2932,42.3175,59.5553,,Asian Development Bank,http://www.carecprogram.org/ru/uploads/docs/Projects/TA/TA4029-UZB-Volume-1-Sections-I-III.pdf,,,,,,,,,,,,Uzbekistan,,GEODB
1000139,Novo-Angren power station,Coal,,Sub-critical Thermal,5,2100,1989,Uzbekenergo,,,"7,020",2018.0,,,,,,,,40.9233,69.8174, / GCPT_Plant_Units_Link: L104293=>G107535;G107536;G107537;G107538;G107539;G107540;G107541;G107542 / ,GCPT,https://endcoal.org/global-coal-plant-tracker/,,,,,,,,,,,,Uzbekistan,,GEODB
1000144,Angren power station,Coal,,Sub-critical Thermal,,422.0,1973,Uzbekenergo,,,,2018.0,,,,,,,0.3020,41.0047,70.1235, / GCPT_Plant_Units_Link: L104292=>G100203;G100204;G100205;G100206;G100207;G100208;G100209;G100210;G100211 / ,GCPT,https://endcoal.org/global-coal-plant-tracker/,,,,,,,,,,,,Uzbekistan,,GEODB
