,country_code,company,name,postcode,city,street,state,block,commissioned_original,commissioned,retrofit,shutdown,status,fuel,technology,type,eeg,chp,capacity,capacity_uba,chp_capacity_uba,merge_comment,efficiency_data,efficiency_estimate,efficiency_source,network_node,voltage,network_operator,name_uba,lat,lon,comment
BNA0005,DE,Vattenfall Europe Generation AG,Ahrensfelde,16356,Ahrensfelde,Lindenberger Weg,Brandenburg,GT A,1990,1990.0,,,operating,gas,GT,,no,no,37.5,38.0,,List matching type: UBA capacity distributed proportionally to multiple BNetzA power plants,0.31,0.3539999999999992,https://www.ffe.de/download/berichte/Endbericht_Energiezukunft_2050_Teil_II.pdf (S.191),Malchow,110,50 Hertz Transmission GmbH,Ahrensfelde A bis D,52.58950001,13.5586524,
BNA0006,DE,Vattenfall Europe Generation AG,Ahrensfelde,16356,Ahrensfelde,Lindenberger Weg,Brandenburg,GT B,1990,1990.0,,,operating,gas,GT,,no,no,37.5,38.0,,List matching type: UBA capacity distributed proportionally to multiple BNetzA power plants,0.31,0.3539999999999992,https://www.ffe.de/download/berichte/Endbericht_Energiezukunft_2050_Teil_II.pdf (S.191),Malchow,110,50 Hertz Transmission GmbH,Ahrensfelde A bis D,52.58950001,13.5586524,
BNA0007,DE,Vattenfall Europe Generation AG,Ahrensfelde,16356,Ahrensfelde,Lindenberger Weg,Brandenburg,GT C,1990,1990.0,,,operating,gas,GT,,no,no,37.5,38.0,,List matching type: UBA capacity distributed proportionally to multiple BNetzA power plants,0.31,0.3539999999999992,https://www.ffe.de/download/berichte/Endbericht_Energiezukunft_2050_Teil_II.pdf (S.191),Malchow,110,50 Hertz Transmission GmbH,Ahrensfelde A bis D,52.58950001,13.5586524,
BNA0008,DE,Vattenfall Europe Generation AG,Ahrensfelde,16356,Ahrensfelde,Lindenberger Weg,Brandenburg,GT D,1990,1990.0,,,operating,gas,GT,,no,no,37.5,38.0,,List matching type: UBA capacity distributed proportionally to multiple BNetzA power plants,0.31,0.3539999999999992,https://www.ffe.de/download/berichte/Endbericht_Energiezukunft_2050_Teil_II.pdf (S.191),Malchow,110,50 Hertz Transmission GmbH,Ahrensfelde A bis D,52.58950001,13.5586524,
BNA0010a,DE,Rheinkraftwerk Albbruck- Dogern AG,RADAG,79774,Albbruck,Kraftwerkstrasse 34,Baden-Württemberg,,1933,1933.0,,,operating,run_of_river,ROR,,no,no,79.5,83.64782608695653,,List matching type: UBA capacity distributed proportionally to multiple BNetzA power plants,,,,Tiengen,110,Amprion GmbH,Albbruck-Dogern,47.586290000000005,8.13207,
BNA0010b,DE,Rheinkraftwerk Albbruck- Dogern AG,WKW,79804,Dogern,Zollstrasse,Baden-Württemberg,,2009,2009.0,,,operating,run_of_river,ROR,,yes,no,24.0,25.25217391304348,,List matching type: UBA capacity distributed proportionally to multiple BNetzA power plants,,,,Tiengen,110,Amprion GmbH,Albbruck-Dogern,47.598482000000004,8.170982,
BNA0011,DE,Papierfabrik Albbruck GmbH,Papierfabrik Albbruck,79774,Albbruck,,Baden-Württemberg,,2009,2009.0,,2012.0,shutdown,coal,ST,,no,yes,28.0,,,,,0.4474999999999998,,Albbruck,110,ED Netze GmbH,,47.58931,8.132610000000001,
BNA0012a,DE,Sappi Alfeld GmbH,Werkskraftwerk Sappi Alfeld,31061,Alfeld,Mühlenmasch 1,Niedersachsen,Turbine 5,1988,1988.0,,,operating,biomass,ST,,yes,yes,16.8,,,,,0.38,,,6,Überlandwerk Leinetal GmbH,,51.984761,9.822830999999999,
BNA0012b,DE,Sappi Alfeld GmbH,Werkskraftwerk Sappi Alfeld,31061,Alfeld,Mühlenmarsch 1,Niedersachsen,Gaskraftwerk,1947,1947.0,,,operating,gas,ST,,no,yes,20.0,,,,,0.3267000000000002,,,6,Überlandwerk Leinetal GmbH,,51.98513,9.822460000000001,
BNA0012c,DE,Sappi Alfeld GmbH,Werkskraftwerk Sappi Alfeld,31061,Alfeld,Mühlenmarsch 1,Niedersachsen,Wasserturbine,1912,1912.0,,,operating,run_of_river,ROR,,yes,no,0.1,,,,,,,,,,,51.98513,9.822460000000001,
BNA0012d,DE,Sappi Alfeld GmbH,Werkskraftwerk Sappi Alfeld,31061,Alfeld,Mühlenmarsch 1,Niedersachsen,Dieselgenerator,1994,1994.0,,,shutdown_temporary,oil,ST,,no,no,2.8,,,,,0.37840000000000007,,,,,,51.98513,9.822460000000001,
BNA0015,DE,EnBW Energie Baden-Württemberg AG,Heizkraftwerk Altbach/Deizisau,73776,Altbach,Industriestraße 11,Baden-Württemberg,ALT GT E (solo),1997,1997.0,,,operating,gas,GT,,no,yes,65.0,78.3596837944664,,List matching type: UBA capacity distributed proportionally to multiple BNetzA power plants,0.44,0.3721999999999994,http://www.feuerwehr-oberboihingen.de/index.php?id=210&tx_ttnews[tt_news]=452&cHash=d8aa7375c5ed6e4b398f9bee5e270dbb,Altbach,110,Netze BW GmbH,"Altbach/Deizisau GT A-C, E",48.717611,9.374917,
BNA0016,DE,EnBW Energie Baden-Württemberg AG,Heizkraftwerk Altbach/Deizisau,73776,Altbach,Industriestraße 11,Baden-Württemberg,ALT GT A (Solo),1971,1971.0,,,operating,gas,GT,,no,no,50.0,60.276679841897234,,List matching type: UBA capacity distributed proportionally to multiple BNetzA power plants,,0.30459999999999976,,Altbach,110,Netze BW GmbH,"Altbach/Deizisau GT A-C, E",48.717611,9.374917,
BNA0017,DE,EnBW Energie Baden-Württemberg AG,Heizkraftwerk Altbach/Deizisau,73776,Altbach,Industriestraße 11,Baden-Württemberg,ALT GT B,1973,1973.0,,,operating,gas,GT,,no,no,57.0,68.71541501976284,,List matching type: UBA capacity distributed proportionally to multiple BNetzA power plants,,0.3097999999999992,,Altbach,110,Netze BW GmbH,"Altbach/Deizisau GT A-C, E",48.717611,9.374917,
BNA0018,DE,EnBW Energie Baden-Württemberg AG,Heizkraftwerk Altbach/Deizisau,73776,Altbach,Industriestraße 11,Baden-Württemberg,ALT GT C,1975,1975.0,,,operating,gas,GT,,no,no,81.0,97.64822134387352,,List matching type: UBA capacity distributed proportionally to multiple BNetzA power plants,,0.3149999999999995,,Altbach,110,Netze BW GmbH,"Altbach/Deizisau GT A-C, E",48.717611,9.374917,
BNA0019,DE,EnBW Energie Baden-Württemberg AG,Heizkraftwerk Altbach/Deizisau,73776,Altbach,Industriestraße 11,Baden-Württemberg,ALT HKW 2 (DT Solobetrieb),1997,1997.0,2012.0,,operating,coal,ST,CHP,no,yes,336.0,379.0,280.0,List matching type: Single UBA power plant assigned to single BNetzA power plant,0.44,0.45500000000000007,http://www.feuerwehr-oberboihingen.de/index.php?id=210&tx_ttnews[tt_news]=452&cHash=d8aa7375c5ed6e4b398f9bee5e270dbb,Altbach,380,Transnet BW GmbH,Altbach/Deizisau HKW 2,48.717611,9.374917,
BNA0020,DE,EnBW Energie Baden-Württemberg AG,Heizkraftwerk Altbach/Deizisau,73776,Altbach,Industriestraße 11,Baden-Württemberg,ALT HKW 1,1985,1985.0,2006.0,,operating,coal,ST,CHP,no,yes,433.0,476.0,280.0,List matching type: Single UBA power plant assigned to single BNetzA power plant,0.44,0.4399999999999995,http://www.feuerwehr-oberboihingen.de/index.php?id=210&tx_ttnews[tt_news]=452&cHash=d8aa7375c5ed6e4b398f9bee5e270dbb,Altbach,380,Transnet BW GmbH,Altbach/Deizisau HKW 1,48.717611,9.374917,
BNA0021,DE,Heizkraftwerk Altenstadt GmbH & Co. KG,HKW Altenstadt,86972,Altenstadt,Triebstraße 90,Bayern,,1999,1999.0,,,operating,biomass,ST,,yes,no,9.8,,,,,0.38,,,MS,LEW Verteilnetz GmbH,,47.79714,10.85874,
BNA0024,AT,TIWAG-Tiroler Wasserkraft AG,KW Amlach,A-9900,Amlach,,Österreich,Amlach,1989,1989.0,,,operating,run_of_river,ROR,,no,no,60.0,,,,,,,UW Amlach,110,TIWAG-Netz AG/APG bzw. Tennet,,46.81420479999999,12.761757000000001,
BNA0025,DE,Suiker Unie GmbH,Kesselhaus Zuckerfabrik,17389,Anklam,Bluthsluster Str. 24,Mecklenburg-Vorpommern,,1993,1993.0,,,operating,gas,ST,,no,yes,15.1,,,,,0.37729999999999997,,DE00100017389AS000000000001237294,20,E.DIS AG,,53.85625,13.7101,
BNA0027,DE,Zellstoff Stendal GmbH,Zellstoff Stendal GmbH,39596,Arneburg,Goldbecker Straße 1,Sachsen-Anhalt,-,2004 / 2013,2013.0,,,operating,biomass,ST,CHP,yes,yes,138.9,147.0,600.0,List matching type: Single UBA power plant assigned to single BNetzA power plant,,0.38,,"DE0075603959600000E00000000013559
DE0075603959600000E00000000013560
DE0075603959600000E00000000013561",30,Infrastrukturbetrieb der Stadt Arneburg,Arneburg,52.72713,12.01115,
BNA0033,DE,Stadtwerke Augsburg Energie GmbH,Gasturbine,86165,Augsburg ,Beim Grenzgraben 10,Bayern,GT,2004,2004.0,,,operating,gas,GT,,no,yes,28.8,,,,,0.39039999999999964,,Station 1000,110,Netze Augsburg GmbH,,48.40099,10.93576,
BNA0042,DE,Innwerk AG,Egglfing,94072,Bad Füssing,Am Innwerk 13,Bayern,Egglfing,1944,1944.0,,,operating,run_of_river,ROR,,no,no,40.4,,,,,,,Schaltanlage vor Ort,110,Bayernwerk AG,,48.3206154,13.3160755,
BNA0045,DE,"EnBW Energie Baden-Württemberg AG /
Energiedienst AG",Rheinkraftwerk Säckingen,79713,Bad Säckingen,Murger Weg 2,Baden-Württemberg,Säckingen,1959,1959.0,,,operating,run_of_river,ROR,,no,no,36.8,,,,,,,Säckingen bzw. CH,110,Netze BW GmbH,,47.558531200000004,7.955657899999999,
BNA0046,DE,Schluchseewerk Aktiengesellschaft,Säckingen,79713,Bad Säckingen,Stollenweg 2,Baden-Württemberg,Säckingen,1966,1966.0,,,operating,pumped_storage,PSP,,no,no,360.0,370.0,,List matching type: Single UBA power plant assigned to single BNetzA power plant,,,,Kühmoos,220,Amprion/ Transnet BW,Säckingen 1 bis 4,47.565416,7.954035,
BNA0051,DE,Cargill Deutschland GmbH,KWK-Anlage Barby,39249,Barby,Monplaisirstr. 22,Sachsen-Anhalt,-,1993,1993.0,,,operating,gas,ST,,no,yes,18.0,,,,,0.37729999999999997,,Übergabe Schaltanlage E.ON,20,Avacon AG,,51.983191999999995,11.876560000000001,
BNA0055,DE,Pfleiderer Baruth GmbH,UTB,15837,Baruth/Mark,An der Birkenpfuhlheide 3,Brandenburg,,2002,2002.0,,,operating,biomass,ST,,yes,yes,16.0,,,,,0.38,,UTB/Eon-edis ,20,E.DIS AG,,52.07778,13.51725,
BNA0059a,DE,Volkswagen AG,HKW Kassel,34225,Baunatal,,Hessen,Turbine 1,1961,1961.0,,2013.0,shutdown,gas,ST,,no,yes,12.2,,,,,0.3421000000000003,,Anlage A,20,VW Kraftwerk GmbH,,51.258829999999996,9.43341,
BNA0059b,DE,Volkswagen AG,"GuD Baunatal, VW Werksgelände",34225,Baunatal,,Hessen,,2013,2013.0,,,operating,gas,CC,,no,yes,78.0,,,,0.47,0.5984999999999978,http://www.vw-kraftwerk.de/documente/umwelterklaerung_2012.pdf,UW Rengershausen,110,Avacon AG,,51.25308,9.4379,
BNA0062,DE,,,15848,Beeskow,,Brandenburg,,2001,2001.0,,,operating,biomass,ST,,yes,,18.3,,,,,0.38,,,HS/MS,E.DIS AG,,52.18269,14.258410000000001,
BNA0065,DE,Donau-Wasserkraft AG,Bergheim,86673,Bergheim,,Bayern,entfällt,1970,1970.0,,,operating,run_of_river,ROR,,no,no,23.7,,,,,,,loco Kraftwerk,20,DB Energie GmbH,,48.750807,11.273237,
BNA0066,DE,RWE Energiedienstleistungen GmbH,BMKW Bergkamen,59192,Bergkamen,Ernst-Schering-Straße 10,Nordrhein-Westfalen,,2005,2005.0,,,operating,biomass,ST,,yes,no,17.7,,,,,0.38,,DE000323591920000304434000000S003,30,GSW Gemeinschaftsstadtwerke GmbH Kamen-Bönen-Bergkamen,,51.63701,7.618760000000001,
BNA0067,DE,RWE Generation SE,Bergkamen,59192,Bergkamen,,Nordrhein-Westfalen,A,1981,1981.0,,,operating,coal,ST,,no,yes,717.0,780.0,20.0,List matching type: Single UBA power plant assigned to single BNetzA power plant,,0.3774999999999995,,Gersteinwerk,380,Amprion GmbH,Bergkamen A,51.63702,7.6191,
BNA0068,DE,RWE Energiedienstleistungen GmbH,HHKW Berlin-Neukölln,12355,Berlin,Köpenicker Straße 32,Berlin,,2005,2005.0,,,operating,biomass,ST,,yes,yes,16.5,,,,,0.38,,DE0000801235500000000000080116330,110,Stromnetz Berlin GmbH,,52.425290000000004,13.517307999999998,
BNA0073,DE,Vattenfall Europe Wärme AG,Mitte,10179,Berlin,Köpenicker Straße 60,Berlin,GuD Mitte,1996,1996.0,,,operating,gas,CC,CHP,no,yes,444.0,468.0,1210.0,List matching type: Multiple UBA capacities aggregated to single BNetzA power plant,0.49,0.5219999999999985,http://corporate.vattenfall.de/globalassets/deutschland/nachhaltigkeit/umwelt/zertifikate/ue_hkw_mi_2013.pdf,Mitte,110,Stromnetz Berlin GmbH,"Berlin-Mitte HKW GT 1, Berlin-Mitte HKW GT 2, Berlin-Mitte HKW DT",52.51172353,13.420915599999999,
BNA0074,DE,Vattenfall Europe Wärme AG,Charlottenburg,10589,Berlin,Am Spreebord 5,Berlin,Charlottenburg,1975,1975.0,2000.0,,operating,gas,GT,,no,yes,211.0,214.0,300.0,List matching type: Single UBA power plant assigned to single BNetzA power plant,,0.3799999999999999,,Charlottenburg,110,Stromnetz Berlin GmbH,Berlin-Charlottenburg 4 bis 6,52.52185624,13.31109524,
BNA0075,DE,Vattenfall Europe Wärme AG,Lichterfelde,12207,Berlin,Ostpreußendamm 61,Berlin,Lichterfelde 1,1972,1972.0,1998.0,,operating,gas,ST,CHP,no,yes,144.0,150.0,240.0,List matching type: Single UBA power plant assigned to single BNetzA power plant,,0.38280000000000003,,Lichterfelde,110,Stromnetz Berlin GmbH,Berlin-Lichterfelde 1,52.42520804,13.30976486,
BNA0076,DE,Vattenfall Europe Wärme AG,Lichterfelde,12207,Berlin,Ostpreußendamm 61,Berlin,Lichterfelde 3,1974,1974.0,1998.0,,operating,gas,ST,CHP,no,yes,144.0,150.0,240.0,List matching type: Single UBA power plant assigned to single BNetzA power plant,,0.38280000000000003,,Lichterfelde,110,Stromnetz Berlin GmbH,Berlin-Lichterfelde 3,52.42520804,13.30976486,
BNA0080,DE,Vattenfall Europe Wärme AG,Lichterfelde,12207,Berlin,Ostpreußendamm 61,Berlin,Lichterfelde 2,1973,1973.0,1998.0,,special_case,gas,ST,CHP,no,yes,144.0,150.0,240.0,List matching type: Single UBA power plant assigned to single BNetzA power plant,,0.38280000000000003,,Lichterfelde,110,Stromnetz Berlin GmbH,Berlin-Lichterfelde 2,52.42520804,13.30976486,
BNA0081,DE,Vattenfall Europe Wärme Aktiengesellschaft,Klingenberg,10317,Berlin,Köpenicker Chaussee 42 - 45 ,Berlin,Klingenberg,1981,1981.0,1982.0,,operating,lignite,ST,CHP,no,yes,164.0,188.0,1010.0,List matching type: Single UBA power plant assigned to single BNetzA power plant,,0.3567999999999989,,Klingenberg,110,Stromnetz Berlin GmbH,Berlin-Klingenberg,52.48891639,13.49696159,
BNA0082,DE,Vattenfall Europe Wärme Aktiengesellschaft,Reuter,13599,Berlin,Otternbuchtstr. 11,Berlin,Reuter C,1969,1969.0,,,operating,coal,ST,CHP,no,yes,124.0,132.0,244.0,List matching type: Single UBA power plant assigned to single BNetzA power plant,,0.34750000000000014,,Reuter,110,Stromnetz Berlin GmbH,Berlin-Reuter C,52.532146,13.246072,
BNA0083,DE,Vattenfall Europe Wärme AG,Wilmersdorf,14199,Berlin,Forckenbeckstr. 3 - 6,Berlin,Wilmersdorf,1977,1977.0,,,operating,oil,ST,CHP,no,yes,276.0,280.0,330.0,List matching type: Single UBA power plant assigned to single BNetzA power plant,,0.35970000000000013,,Wilmersdorf,110,Stromnetz Berlin GmbH,Berlin-Wilmersdorf 1 bis 3,52.48159366,13.30761909,
BNA0084,DE,Vattenfall Europe Wärme Aktiengesellschaft,Reuter,13599,Berlin,Otternbuchtstr. 11,Berlin,Reuter M,1998,1998.0,,,operating,waste,ST,,no,yes,36.0,,,,,0.33,,Reuter,110,Stromnetz Berlin GmbH,,52.532146,13.246072,
BNA0085a,DE,Vattenfall Europe Wärme Aktiengesellschaft,Moabit,13353,Berlin,Friedrich-Krause-Ufer 10- 15,Berlin,Moabit A,1990,1990.0,1990.0,,operating,coal,ST,CHP,no,yes,89.0,100.0,136.0,List matching type: Single UBA power plant assigned to single BNetzA power plant,,0.40000000000000036,,Moabit,110,Stromnetz Berlin GmbH,Berlin-Moabit A,52.53735111,13.34611416,
BNA0085b,DE,Vattenfall Europe Wärme Aktiengesellschaft,Moabit,13353,Berlin,Friedrich-Krause-Ufer 10- 15,Berlin,Moabit GT,1971,1971.0,,,operating,oil,GT,,no,no,51.0,,,,,0.30459999999999976,,Moabit,110,Stromnetz Berlin GmbH,,52.53735111,13.34611416,
BNA0086,DE,Vattenfall Europe Wärme AG,Reuter West,13599,Berlin,Großer Spreering 5,Berlin,Reuter West D,1987,1987.0,,,operating,coal,ST,CHP,no,yes,282.0,300.0,363.0,List matching type: Single UBA power plant assigned to single BNetzA power plant,0.4,0.39250000000000007,http://www.energie-und-management.de/free-archive/Freearchive/feView3/4449.html,Reuter,380,50 Hertz Transmission GmbH,Berlin-Reuter-West D,52.53508792,13.24264526,
BNA0087,DE,Vattenfall Europe Wärme AG,Reuter West,13599,Berlin,Großer Spreering 5,Berlin,Reuter West E,1988,1988.0,,,operating,coal,ST,CHP,no,yes,282.0,300.0,363.0,List matching type: Single UBA power plant assigned to single BNetzA power plant,0.4,0.3949999999999996,http://www.energie-und-management.de/free-archive/Freearchive/feView3/4449.html,Reuter,380,50 Hertz Transmission GmbH,Berlin-Reuter-West E,52.53508792,13.24264526,
BNA0088a,DE,Solvay Chemicals GmbH,Dampfturbinenanlage der EBS-Kessel,06406,Bernburg,,Sachsen-Anhalt,,2010,2010.0,,,operating,waste,CC,IPP,no,yes,35.0,53.71287128712871,,List matching type: UBA capacity distributed proportionally to multiple BNetzA power plants,,,,Umspannwerk Bernburg Nord,110,Mitteldeutsche Netzgesellschaft Strom mbH,Bernburg,51.802609000000004,11.751511,
BNA0088b,DE,Solvay Chemicals GmbH,Industriekraftwerk Bernburg (IKB),06406,Bernburg,,Sachsen-Anhalt,,1994,1994.0,,,operating,gas,CC,IPP,no,yes,66.0,101.2871287128713,,List matching type: UBA capacity distributed proportionally to multiple BNetzA power plants,,0.5129999999999981,,Umspannwerk Bernburg Nord,110,Mitteldeutsche Netzgesellschaft Strom mbH,Bernburg,51.801239,11.75441,
BNA0090,DE,ENERTRAG Aktiengesellschaft,"ENERTRAG Netz GmbH 
(UW Bertikow)",17291,Bertikow,,Brandenburg,,2003,2003.0,,,operating,biomass,ST,,yes,no,20.0,,,,,0.38,,UW Bertikow,220,50Hertz Transmission GmbH,,53.252131999999996,13.957019,
BNA0093,DE,STEAG GmbH,Kraftwerk Bexbach,66450,Bexbach,Grubenstraße,Saarland,BEX,1983,1983.0,,,operating,coal,ST,,no,no,721.0,780.0,,List matching type: Single UBA power plant assigned to single BNetzA power plant,0.39,0.3825000000000003,http://www.spd-saar.de/uploads/media/konzept_bergbau.pdf,Mittelbexbach,380,Amprion GmbH,Bexbach,49.363481,7.2371360000000005,
BNA0097,DE,MVA Bielefeld-Herford GmbH,MVA Bielefeld,33609,Bielefeld,Schelpmilser Weg 30,Nordrhein-Westfalen,Linien 1 - 3,1981,1981.0,,,operating,waste,ST,,no,yes,34.0,,,,,0.33,,UW Milse,110,SWB Netz GmbH,,52.04269,8.60719,
BNA0098,DE,Stadtwerke Bielefeld GmbH,HKW Schildescher Straße,33611,Bielefeld,,Nordrhein-Westfalen,,1978,1978.0,,,special_case,gas,ST,,no,yes,23.0,,,,,0.36080000000000023,,UW Kraftwerk,110,SWB Netz GmbH,,52.033503,8.539061,
BNA0099,DE,Gemeinschaftskraftwerk Veltheim GmbH,Gasturbinenkraftwerk Bielefeld Ummeln,33649,Bielefeld,,Nordrhein-Westfalen,GT Ummeln,1975,1975.0,,2015.0,shutdown,gas,GT,,no,no,55.0,,,,,0.3149999999999995,,UW - Bielefeld West,110,SWB Netz GmbH,,51.983959999999996,8.45139,
BNA0100,DE,Stadtwerke Bielefeld GmbH,GuD Kraftwerk Hillegossen,33697,Bielefeld,,Nordrhein-Westfalen,GuD,2005,2005.0,,,operating,gas,CC,,no,yes,37.5,,,,,0.5624999999999982,,,110,SWB Netz GmbH,,52.033503,8.539061,
BNA0101,DE,Stadtwerke Bielefeld GmbH,HKW Schildescher Straße,33611,Bielefeld,,Nordrhein-Westfalen,,1966,1966.0,,,special_case,gas,ST,,no,yes,47.0,,,,,0.34760000000000035,,UW Kraftwerk,110,SWB Netz GmbH,,52.033503,8.539061,
BNA0103,DE,Stadtwerke Leipzig GmbH,Biomassekraftwerk Bischofferode,37345,Bischofferode,,Thüringen,,2006,2006.0,,,operating,biomass,ST,,yes,no,18.1,,,,,0.38,,Umspannwerk Bischofferode,20,TEN Thüringer Energienetze GmbH,,51.48993,10.41307,
BNA0105,DE,envia THERM GmbH,GuD Bitterfeld,06749,Bitterfeld,,Sachsen-Anhalt,,2000,2000.0,2000.0,,operating,gas,CC,IPP,no,yes,106.0,114.0,110.0,List matching type: Single UBA power plant assigned to single BNetzA power plant,,0.5399999999999991,,UW Bitterfeld Mitte,110,Mitteldeutsche Netzgesellschaft Strom mbH,Bitterfeld Chemiepark,51.633860999999996,12.299357,
BNA0106,DE,Zellstoff- und Papierfabrik Rosenthal GmbH,,07366,Blankenstein,Hauptstraße 16,Thüringen,,1999,1999.0,,,operating,biomass,ST,,yes,yes,53.5,,,,,0.38,,Umspannwerk,20,TEN Thüringer Energienetze GmbH,,51.490097999999996,10.412883,
BNA0110,DE,RWE Generation SE,Bochum,44799,Bochum,,Nordrhein-Westfalen,KBO,2004,2004.0,,,operating,gas,ST,,no,yes,20.7,,,,,0.3894000000000002,,Weitmar,110,Westnetz GmbH,,51.48333333,7.216666667,
BNA0111,DE,Stadtwerke Bochum Holding GmbH,HKW Hiltrop,44805,Bochum,,Nordrhein-Westfalen,,2014,2014.0,,,operating,gas,ST,,no,yes,44.0,,,,,0.4004000000000003,,INGU 2089 / IGRU 2088,10,Stadtwerke Bochum Netz GmbH,,51.50795,7.25029,
BNA0115,DE,Vattenfall Europe Generation AG,Lippendorf,04007,Böhlen,Werkstraße,Sachsen,R,2000,2000.0,,,operating,lignite,ST,,no,yes,875.0,933.6,230.0,List matching type: Single UBA power plant assigned to single BNetzA power plant,0.41,0.39999999999999947,https://www.wirtschaftsrat.de/wirtschaftsrat.nsf/id/B836452CBA9B03CFC12578DC00337EBA/$file/kirmse.pdf (S.34),Pulgar,380,50 Hertz Transmission GmbH,Lippendorf R,51.182122,12.373287,
BNA0116,DE,EnBW Energie Baden-Württemberg AG,Braunkohlekraftwerk Lippendorf,04564,Böhlen,Werkstraße,Sachsen,LIP S,1999,1999.0,,,operating,lignite,ST,,no,yes,875.0,933.6,230.0,List matching type: Single UBA power plant assigned to single BNetzA power plant,0.42,0.39759999999999884,https://www.enbw.com/unternehmen/konzern/energieerzeugung/fossile-energie/standorte.html,Pulgar,380,50 Hertz Transmission GmbH,Lippendorf S,51.182122,12.373287,
BNA0117a,DE,Energie- und Wasserversorgung Bonn/Rhein-Sieg GmbH,Heizkraftwerk Karlstraße,53115,Bonn,,Nordrhein-Westfalen,Heizkraftwerk Karlstraße,1991,1991.0,,,operating,waste,ST,,no,yes,12.0,,,,,0.33,,Umspannanlage Endenich,10,Bonn Netz GmbH ,,50.73382,7.08055,
BNA0117b,DE,Energie- und Wasserversorgung Bonn/Rhein-Sieg GmbH,Heizkraftwerk Karlstraße,53115,Bonn,,Nordrhein-Westfalen,Heizkraftwerk Karlstraße,2013,2013.0,,,operating,gas,ST,,no,yes,95.0,,,,,0.3993000000000002,,,10 und 110,Bonn Netz GmbH,,50.73382,7.08055,
BNA0118,DE,Energie- und Wasserversorgung Bonn/Rhein-Sieg GmbH,Heizkraftwerk Süd,53121,Bonn,,Nordrhein-Westfalen,Heizkraftwerk Süd,1969,1969.0,,2012.0,shutdown,gas,ST,,no,yes,14.4,,,,,0.3509000000000002,,Umspannanlage Kessenich,10,Bonn Netz GmbH ,,50.73382,7.08055,
BNA0121,DE,Borchers Biomassekraftwerk GmbH,,46325,Borken,,Nordrhein-Westfalen,,2006,2006.0,,,operating,biomass,ST,,yes,,11.4,,,,,0.38,,,MS,Westnetz GmbH,,51.85542,6.888669999999999,
BNA0122,DE,Vattenfall Europe Generation AG,Boxberg,02943,Boxberg,Kraftwerksstraße,Sachsen,N,1979,1979.0,1993.0,,operating,lignite,ST,,no,yes,465.0,500.0,60.0,List matching type: Single UBA power plant assigned to single BNetzA power plant,0.35,0.38319999999999954,https://www.greenpeace.de/sites/www.greenpeace.de/files/publications/vattenfalls-chance-roadmap-150424.pdf (S.15),Bärwalde,380,50 Hertz Transmission GmbH,Boxberg N,51.41626317,14.56194878,
BNA0123,DE,Vattenfall Europe Generation AG,Boxberg,02944,Boxberg,Kraftwerksstraße,Sachsen,P,1980,1980.0,1994.0,,operating,lignite,ST,,no,yes,465.0,500.0,,List matching type: Single UBA power plant assigned to single BNetzA power plant,0.35,0.3855999999999993,https://www.greenpeace.de/sites/www.greenpeace.de/files/publications/vattenfalls-chance-roadmap-150424.pdf (S.15),Bärwalde,380,50 Hertz Transmission GmbH,Boxberg P,51.41626317,14.56194878,
BNA0124,DE,Vattenfall Europe Generation AG,Boxberg,02945,Boxberg,Kraftwerksstraße,Sachsen,Q,2000,2000.0,,,operating,lignite,ST,,no,yes,857.0,907.0,65.0,List matching type: Single UBA power plant assigned to single BNetzA power plant,0.423,0.39999999999999947,https://www.greenpeace.de/sites/www.greenpeace.de/files/publications/vattenfalls-chance-roadmap-150424.pdf (S.16),Bärwalde,380,50 Hertz Transmission GmbH,Boxberg Q,51.41626317,14.56194878,
BNA0129,DE,Stadtwerke Brandenburg an der Havel GmbH,HKW,14772,Brandenburg,,Brandenburg,,1997,1997.0,,,operating,gas,ST,,no,yes,36.0,,,,,0.3817000000000004,,UW Hohenstücken,110,E.DIS AG,,51.512175,13.97109,
BNA0130,DE,E.ON Kraftwerke GmbH,Kirchmöser,14774,Brandenburg,,Brandenburg,,1994,1994.0,,,operating,gas,CC,,no,no,160.0,207.0,,List matching type: Single UBA power plant assigned to single BNetzA power plant,,0.5129999999999981,,Unterwerk Kirchmöser,110,50 Hertz Transmission GmbH / DB Energie GmbH,Kirchmöser,52.394166999999996,12.418056,
BNA0135,DE,Braunschweiger Versorgungs-AG & Co. KG,HKW-Mitte,38106,Braunschweig,,Niedersachsen,Block 12,1971,1971.0,,,operating,gas,CC,CHP,no,yes,20.0,26.68608885651857,,List matching type: UBA capacity distributed proportionally to multiple BNetzA power plants,,0.40949999999999775,,UW Hasenwinkel 5/8,110,Braunschweiger Netz GmbH,Braunschweig-Mitte,52.278611,10.514722,
BNA0136,DE,Braunschweiger Versorgungs-AG & Co. KG,HKW-Mitte,38106,Braunschweig,,Niedersachsen,GuD,2010,2010.0,,,operating,gas,CC,CHP,no,yes,74.0,98.7385287691187,,List matching type: UBA capacity distributed proportionally to multiple BNetzA power plants,,0.5849999999999991,,UW Hasenwinkel 3/7,110,Braunschweiger Netz GmbH,Braunschweig-Mitte,52.278611,10.514722,
BNA0137,DE,Braunschweiger Versorgungs-AG & Co. KG,HKW-Nord,38112,Braunschweig,,Niedersachsen,GT,1965,1965.0,,,operating,gas,GT,,no,yes,25.0,,,,,0.2889999999999997,,UW Nord Zelle 21 ,110,Braunschweiger Netz GmbH,,52.278611,10.514722,
BNA0138,DE,Braunschweiger Versorgungs-AG & Co. KG,HKW-Mitte,38106,Braunschweig,,Niedersachsen,Block 1 ,1984,1984.0,,,operating,coal,CC,CHP,no,yes,43.3,57.77538237436269,,List matching type: UBA capacity distributed proportionally to multiple BNetzA power plants,,,,UW Hasenwinkel,110,Braunschweiger Netz GmbH,Braunschweig-Mitte,52.278611,10.514722,
BNA0139,DE,swb Entsorgung GmbH & Co. KG,KW Hafen,28237,Bremen,Otavistr. 7-9,Bremen,MKK,2009,2009.0,,,operating,waste,ST,,no,no,33.0,,,,,0.33,,über Block 5 und 6 (KW Hafen; swb Erzeugung),110,Wesernetz Bremen GmbH,,53.12481999999999,8.72887,
BNA0140,DE,swb Erzeugung GmbH & Co. KG,KW Hastedt,28207,Bremen,Hastedter Osterdeich 255,Bremen,Block 14,1972,1972.0,,,shutdown_temporary,gas,ST,,no,yes,155.0,,,,,0.35420000000000007,,DE0072032820700000000000000232556,110,Wesernetz Bremen GmbH,,53.060080000000006,8.873280000000001,
BNA0141,DE,swb Erzeugung GmbH & Co. KG,KW Mittelsbüren,28237,Bremen,Auf den Delben 35,Bremen,GT 3,1974,1974.0,,,operating,oil,GT,,no,no,88.0,,,,,0.31239999999999934,,DE0072032823700000000000000731877,110,Wesernetz Bremen GmbH,,53.12891,8.68524,
BNA0142,DE,Arcelor Mittal Bremen GmbH,KW Mittelsbüren,28237,Bremen,Auf den Delben 35,Bremen,Block 4,1975,1975.0,2002.0,,operating,other_non_renewable,ST,,no,no,160.0,160.0,,List matching type: Single UBA power plant assigned to single BNetzA power plant,,,,DE0072032823700000000000000731878,110,Wesernetz Bremen GmbH,Bremen-Mittelsbüren 4,53.12891,8.68524,
BNA0143,DE,swb Erzeugung GmbH & Co. KG,KW Mittelsbüren,28237,Bremen,Auf den Delben 35,Bremen,Block 3,1974,1974.0,,2013.0,shutdown,other_non_renewable,ST,,no,no,110.0,,,,,,,Bahnstromanschluß,110,DB Energie GmbH,,53.12891,8.68524,
BNA0144,DE,swb Erzeugung GmbH & Co. KG,KW Hastedt,28207,Bremen,Hastedter Osterdeich 255,Bremen,Block 15,1989,1989.0,,,operating,coal,ST,CHP,no,yes,119.0,130.0,155.0,List matching type: Single UBA power plant assigned to single BNetzA power plant,,0.39749999999999996,,DE0072032820700000000000000232557,110,Wesernetz Bremen GmbH,Bremen-Hastedt 15,53.060080000000006,8.873280000000001,
BNA0145,DE,swb Erzeugung GmbH & Co. KG,KW Hafen,28237,Bremen,Otavistr. 7-9,Bremen,Block 5,1968,1968.0,,,shutdown_temporary,coal,ST,,no,yes,127.0,,,,,0.34499999999999975,,DE0072032825900000000000000232559,110,Wesernetz Bremen GmbH,,53.12481999999999,8.72887,
BNA0146,DE,swb Erzeugung GmbH & Co. KG,KW Hafen,28237,Bremen,Otavistr. 7-9,Bremen,Block 6,1979,1979.0,,,operating,coal,ST,,no,yes,300.0,315.0,39.0,List matching type: Single UBA power plant assigned to single BNetzA power plant,,0.3724999999999996,,DE0072032823700000000000000232558,110,Wesernetz Bremen GmbH,"Bremen-Hafen 6, (Elfi)",53.124860999999996,8.728657,
BNA0147,DE,GDF SUEZ Energie Deutschland AG,Farge,28777,Bremen,Wilhelmshavener Str. 6,Bremen,Farge,1969,1969.0,2007.0,,operating,coal,ST,,no,no,350.0,397.0,26.0,List matching type: Single UBA power plant assigned to single BNetzA power plant,,0.4424999999999999,,Farge - FA1,220,TenneT TSO GmbH ,Bremen-Farge,53.20206653,8.516153926,
BNA0156a,DE,Egger Kraftwerk Brilon GmbH,Egger Kraftwerk Briilon,59929,Brilon ,Im Kissen 19,Nordrhein-Westfalen,Biomasse - KWK - Anlage,1990,1990.0,,,operating,biomass,ST,,yes,yes,18.0,,,,,0.38,,,10,Westnetz GmbH,,51.40667,8.60115,
BNA0156b,DE,Egger Kraftwerk Brilon GmbH,Egger Kraftwerk Briilon,59929,Brilon ,Im Kissen 19,Nordrhein-Westfalen,Gasturbinen - KWK - Anlage,1996,1996.0,,,operating,gas,GT,,no,yes,13.5,,,,,0.36959999999999926,,,10,Westnetz GmbH,,51.40845951,8.599935409,
BNA0157,DE,E.ON Kernkraft GmbH,Brokdorf,25576,Brokdorf,,Schleswig-Holstein,KBR,1986,1986.0,,,operating,uranium,ST,,no,no,1410.0,1480.0,,List matching type: Single UBA power plant assigned to single BNetzA power plant,,0.33,,Brokdorf,380,TenneT TSO GmbH ,Brokdorf (KBR),53.851094999999994,9.345944,
BNA0161,DE,Vattenfall Europe Generation AG,Brunsbüttel,25541,Brunsbüttel,Otto Hahn Str. 76,Schleswig-Holstein,GT A,1973,1973.0,,,operating,oil,GT,,no,no,63.5,64.0,,List matching type: UBA capacity distributed proportionally to multiple BNetzA power plants,,0.3097999999999992,,Brunsbüttel,380,50 Hertz Transmission GmbH,Brunsbüttel A bis D,53.89251924,9.201135635,
BNA0162,DE,Vattenfall Europe Generation AG,Brunsbüttel,25541,Brunsbüttel,Otto Hahn Str. 76,Schleswig-Holstein,GT B,1973,1973.0,,,operating,oil,GT,,no,no,63.5,64.0,,List matching type: UBA capacity distributed proportionally to multiple BNetzA power plants,,0.3097999999999992,,Brunsbüttel,380,50 Hertz Transmission GmbH,Brunsbüttel A bis D,53.89251924,9.201135635,
BNA0163,DE,Vattenfall Europe Generation AG,Brunsbüttel,25541,Brunsbüttel,Otto Hahn Str. 76,Schleswig-Holstein,GT C,1973,1973.0,,,operating,oil,GT,,no,no,63.5,64.0,,List matching type: UBA capacity distributed proportionally to multiple BNetzA power plants,,0.3097999999999992,,Brunsbüttel,380,50 Hertz Transmission GmbH,Brunsbüttel A bis D,53.89251924,9.201135635,
BNA0164,DE,Vattenfall Europe Generation AG,Brunsbüttel,25541,Brunsbüttel,Otto Hahn Str. 76,Schleswig-Holstein,GT D,1973,1973.0,,,operating,oil,GT,,no,no,63.5,64.0,,List matching type: UBA capacity distributed proportionally to multiple BNetzA power plants,,0.3097999999999992,,Brunsbüttel,380,50 Hertz Transmission GmbH,Brunsbüttel A bis D,53.89251924,9.201135635,
BNA0169,DE,Biomasseheizkraftwerk Odenwald GmbH,,74722,Buchen,,Baden-Württemberg,,2003,2003.0,,,operating,biomass,ST,,yes,,28.4,,,,,0.38,,,MS,Netze BW GmbH,,49.515359000000004,9.325151,
BNA0172,DE,Wacker Chemie AG,Dampfkraftwerk BGH - O1,84489,Burghausen,Johannes-Hess Straße 24,Bayern,,2001,2001.0,,,operating,gas,CC,CHP,no,yes,178.0,145.0,380.0,List matching type: Single UBA power plant assigned to single BNetzA power plant,,0.5444999999999993,,UW Holzfeld,110,Bayernwerk AG,Burghausen,48.18345,12.853110000000001,
BNA0173,DE,Wacker Chemie AG,Alzwerke GmbH,84489,Burghausen,Johannes-Hess Straße 24,Bayern,Alzwerk,1922,1922.0,,,operating,run_of_river,ROR,,no,no,45.0,,,,,,,,10,Werksnetz,,48.1769,12.84045,
BNA0174,DE,InfraServ GmbH & Co. Gendorf KG,Industriepark Werk Gendorf,84508,Burgkirchen,,Bayern,,2002,2002.0,,,operating,gas,ST,,no,yes,49.0,,,,,0.3872,,UW Gendorf,30,InfraServ GmbH & Co. Gendorf KG,,48.176790000000004,12.73056,
BNA0176,DE,ACR Biokraftwerk Calbe Invest GmbH & Co. KG,,39240,Calbe,,Sachsen-Anhalt,,1996,1996.0,,,operating,biomass,ST,,yes,,10.2,,,,,0.38,,,MS,Avacon AG,,51.920120000000004,11.801810000000001,
BNA0177,DE,eins energie in sachsen GmbH & Co. KG,HKW Chemnitz  Nord II,09115,Chemnitz,,Sachsen,Block B,1988,1988.0,,,operating,lignite,ST,,no,yes,56.8,,,,,0.3711999999999991,,UW Chemnitz Glösa,110,inetz GmbH,,50.856981,12.923096000000001,
BNA0178,DE,eins energie in sachsen GmbH & Co. KG,HKW Chemnitz  Nord II,09114,Chemnitz,,Sachsen,Block A,1986,1986.0,,,operating,gas,ST,,no,yes,57.2,,,,,0.36960000000000015,,UW Chemnitz Mitte,110,inetz GmbH,,50.856981,12.923096000000001,
BNA0179,DE,eins energie in sachsen GmbH & Co. KG,HKW Chemnitz  Nord II,09116,Chemnitz,,Sachsen,Block C,1990,1990.0,2010.0,,operating,lignite,ST,CHP,no,yes,90.8,100.0,,List matching type: Single UBA power plant assigned to single BNetzA power plant,,0.4239999999999995,,UW Chemnitz Mitte,110,inetz GmbH,Chemnitz Nord II C/30,50.856981,12.923096000000001,
BNA0183,DE,HKW Heizkraftwerksgesellschaft Cottbus mbH,HKW Cottbus,03052,Cottbus,,Brandenburg,1,1999,1999.0,,,operating,lignite,ST,,no,yes,74.0,,,,0.4,0.39759999999999884,https://books.google.de/books?id=3gjxbjLZUIcC&pg=PA44&lpg=PA44&dq=Grevenbroich-Frimmersdorf+wirkungsgrad&source=bl&ots=Ov4NMifXMN&sig=9UFMsjWijfvUpdU2_A-dtbyh_tw&hl=de&sa=X&ved=0ahUKEwiki-rIupLKAhXFfw8KHe3cDRwQ6AEIQzAH#v=onepage&q=Grevenbroich-Frimmersdorf%20wirkungsgrad&f=false,SWC / NA 1 und NA 2,110,Mitteldeutsche Netzgesellschaft Strom mbH,,51.76017,14.37004,
BNA0187,DE,E.ON Kraftwerke GmbH,Datteln,45711,Datteln,,Nordrhein-Westfalen,1,1964,1964.0,,2013.0,shutdown,coal,ST,,no,yes,95.0,,,,,0.33499999999999996,,Datteln,110,DB Energie GmbH,,51.62952,7.331174000000001,
BNA0188,DE,E.ON Kraftwerke GmbH,Datteln,45711,Datteln,,Nordrhein-Westfalen,2,1964,1964.0,,2013.0,shutdown,coal,ST,,no,yes,95.0,,,,,0.33499999999999996,,Datteln,110,DB Energie GmbH,,51.62952,7.331174000000001,
BNA0189,DE,E.ON Kraftwerke GmbH,Datteln,45711,Datteln,,Nordrhein-Westfalen,3,1969,1969.0,,2013.0,shutdown,coal,ST,,no,no,113.0,,,,,0.34750000000000014,,Datteln,110,DB Energie GmbH,,51.62952,7.331174000000001,
BNA0191,DE,Danpower Energie Service GmbH,,04509,Delitzsch,,Sachsen,,2004,2004.0,,,operating,biomass,ST,,yes,,20.0,,,,,0.38,,,MS,TWD Netz GmbH,,51.50703,12.30048,
BNA0192,DE,BKD Biokraftwerk Delitzsch GmbH,,04509,Delitzsch,,Sachsen,,2003,2003.0,,,operating,biomass,ST,,yes,,20.0,,,,,0.38,,,HS,Mitteldeutsche Netzgesellschaft Strom mbH,,51.515209999999996,12.32479,
BNA0194,DE,Kraftwerk Dessau GmbH,Kraftwerk Dessau,06842,Dessau-Roßlau,,Sachsen-Anhalt,,1996,1996.0,,,operating,lignite,ST,,no,yes,49.0,,,,,0.39039999999999964,,KWD,15,Dessauer Stromversorgung GmbH,,51.82685,12.230030000000001,
BNA0196,DE,Mitteldeutsche Braunkohlengesellschaft mbH,Deuben,06682,Teuchern,,Sachsen-Anhalt,,1936,1936.0,,,operating,lignite,ST,,no,yes,67.0,,,,,0.2463999999999995,,Schaltanlage Zwenkau,110,Mitteldeutsche Netzgesellschaft Strom mbH,,51.11187,12.07617,
BNA0199,DE,RWE Generation SE,Dormagen,41539,Dormagen,,Nordrhein-Westfalen,GuD,2000,2000.0,2000.0,,operating,gas,CC,IPP,no,yes,586.3,597.1,480.0,List matching type: Single UBA power plant assigned to single BNetzA power plant,,0.5399999999999991,,Bayerwerk / Dormagen,110,Westnetz GmbH,Dormagen,51.07908,6.828710000000001,
BNA0202,DE,RWE Generation SE,Dortmund,44143,Dortmund,,Nordrhein-Westfalen,KDO,2004,2004.0,,,operating,gas,ST,,no,yes,26.0,,,,,0.3894000000000002,,Dortmund,110,Westnetz GmbH,,51.519729999999996,7.47697,
BNA0203,DE,E.ON Kraftwerke GmbH,Knepper,44357,Dortmund,,Nordrhein-Westfalen,C,1971,1971.0,,2014.0,shutdown,coal,ST,,no,yes,345.0,,,,,0.35250000000000004,,Pöppinghausen,380,Amprion GmbH,,51.56846926,7.349182511,
BNA0207,DE,DREWAG Stadtwerke Dresden GmbH,HKW Dresden-Nossener Brücke,01169,Dresden ,Oederaner Str. 21 - 25,Sachsen,"HKW Dresden-Nossener Brücke 
(3 GT + 1 DT, Sammelschiene)",1995,1995.0,,,operating,gas,CC,CHP,no,yes,263.0,270.0,455.0,List matching type: Single UBA power plant assigned to single BNetzA power plant,,0.5174999999999983,,110 kV Trafo 111 - 114,110,DREWAG NETZ GmbH ,Dresden Nossener Brücke,51.042119,13.708597,
BNA0211,DE,Stadtwerke Duisburg AG,HKW I,47053,Duisburg,Zirkelstraße,Nordrhein-Westfalen,ZAWSF,1985,1985.0,,,operating,coal,ST,CHP,no,yes,95.0,102.0,139.0,List matching type: Single UBA power plant assigned to single BNetzA power plant,,0.3875000000000002,,UW HKW I,110,Netze Duisburg GmbH,Duisburg-Hochfeld HKW I,51.429324,6.751983999999999,
BNA0212,DE,Stadtwerke Duisburg AG,HKW II/B,47053,Duisburg,Zirkelstraße,Nordrhein-Westfalen,HKW II/B,1965,1965.0,,2012.0,shutdown,coal,ST,,no,yes,133.0,,,,,0.33750000000000036,,UW HKW II,110,Stadtwerke Duisburg Netzgesellschaft mbH,,51.429324,6.751983999999999,
BNA0213,DE,Stadtwerke Duisburg AG,HKW III/A,47249,Duisburg,Wanheimer Straße 439-454,Nordrhein-Westfalen,HKW III/A,2002,2002.0,,,operating,gas,ST,,no,yes,40.0,,,,,0.3872,,UW HKW III,110,Netze Duisburg GmbH,,51.390662,6.747783,
BNA0214,DE,Stadtwerke Duisburg AG,HKW III/B,47249,Duisburg,Wanheimer Straße 439-454,Nordrhein-Westfalen,HKW III/B,2005,2005.0,,,operating,gas,CC,,no,yes,234.0,245.0,167.0,List matching type: Single UBA power plant assigned to single BNetzA power plant,,0.5624999999999982,,UW HKW III,110,Netze Duisburg GmbH,Duisburg-Wanheim HKW III B,51.390662,6.747783,
BNA0215,DE,Steag GmbH,KW Walsum,47179,Duisburg,Dr. Wilhelm-Roelen-Str.129,Nordrhein-Westfalen,Walsum 7,1959,1959.0,,2014.0,shutdown,coal,ST,,no,no,129.0,,,,,0.3224999999999998,,220 kV Schaltanlage Walsum,220,Amprion GmbH,,51.528611,6.711944,
BNA0216a,DE,Steag GmbH,KW Walsum,47180,Duisburg,Dr. Wilhelm-Roelen-Str.129,Nordrhein-Westfalen,Walsum 9,1988,1988.0,,,operating,coal,ST,CHP,no,yes,370.0,410.0,295.0,List matching type: Single UBA power plant assigned to single BNetzA power plant,,0.3949999999999996,,220 kV Schaltanlage Walsum,220,Amprion GmbH,Duisburg-Walsum 9,51.526720000000005,6.71868,
BNA0216b,DE,Steag GmbH,KW Walsum,47180,Duisburg,Dr. Wilhelm-Roelen-Str.129,Nordrhein-Westfalen,Walsum 10,2013,2013.0,,,operating,coal,ST,CHP,no,yes,725.0,790.0,,List matching type: Single UBA power plant assigned to single BNetzA power plant,0.45,0.4574999999999996,http://www.energystate.de/detail.php?lang=de&kat=project&id=183,SA-Walsum,380,Amprion GmbH,Duisburg-Walsum 10,51.526720000000005,6.71868,
BNA0217,DE,ThyssenKrupp Steel Europe AG,Duisburg Ruhrort 2,47166,Duisburg - Ruhrort,,Nordrhein-Westfalen,Block 2,1955,1955.0,,,operating,other_non_renewable,ST,,no,yes,60.0,,,,,,,Anschluss im Werksnetz,110,ThyssenKrupp Steel Europe AG,,51.459672999999995,6.730574000000001,
BNA0218,DE,ThyssenKrupp Steel Europe AG,Duisburg Ruhrort 3,47166,Duisburg - Ruhrort,,Nordrhein-Westfalen,Block 3,1963,1963.0,,,operating,other_non_renewable,ST,IPP,no,yes,90.0,100.0,,List matching type: Single UBA power plant assigned to single BNetzA power plant,,,,Anschluss im Werksnetz,110,ThyssenKrupp Steel Europe AG,Duisburg-Ruhrort 3,51.459672999999995,6.730574000000001,
BNA0219,DE,ThyssenKrupp Steel Europe AG,Duisburg Ruhrort 4,47166,Duisburg - Ruhrort,,Nordrhein-Westfalen,Block 4,1968,1968.0,,,operating,other_non_renewable,ST,IPP,no,yes,165.0,180.0,,List matching type: Single UBA power plant assigned to single BNetzA power plant,,,,Anschluss im Werksnetz,110,ThyssenKrupp Steel Europe AG,Duisburg-Ruhrort 4,51.459672999999995,6.730574000000001,
BNA0220,DE,Stadtwerke Düsseldorf AG,GuD,40221,Düsseldorf,Auf der Lausward 75,Nordrhein-Westfalen,AGuD,2000,2000.0,,,operating,gas,CC,,no,yes,100.0,114.0,75.0,List matching type: Single UBA power plant assigned to single BNetzA power plant,0.54,0.5399999999999991,https://www.swd-ag.de/ueber-uns/erzeugung/erzeugungslandschaften/heizkraftwerke/,U71,110,Netzgesellschaft Düsseldorf mbH,Lausward A (Anton),51.221379999999996,6.731310000000001,
BNA0221a,DE,Stadtwerke Düsseldorf AG,GT,40221,Düsseldorf,Auf der Lausward 75,Nordrhein-Westfalen,Block E GTE2,1974,1974.0,,,operating,gas,GT,,no,no,64.7,65.98021308980213,,List matching type: UBA capacity distributed proportionally to multiple BNetzA power plants,,0.31239999999999934,,U71,110,Netzgesellschaft Düsseldorf mbH ,Lausward E (Emil) GT-1 u. 2,51.22116,6.73193,
BNA0221b,DE,Stadtwerke Düsseldorf AG,GT,40221,Düsseldorf,Auf der Lausward 75,Nordrhein-Westfalen,Block E GTE1,1974,1974.0,,,operating,gas,GT,,no,no,66.7,68.01978691019788,,List matching type: UBA capacity distributed proportionally to multiple BNetzA power plants,,0.31239999999999934,,U71,110,Netzgesellschaft Düsseldorf mbH ,Lausward E (Emil) GT-1 u. 2,51.22116,6.73193,
BNA0221c,DE,Stadtwerke Düsseldorf AG,Gasblock,40221,Düsseldorf,Auf der Lausward 75,Nordrhein-Westfalen,Block E,1976,1976.0,,,operating,gas,ST,CHP,no,yes,293.0,324.0,140.0,List matching type: Single UBA power plant assigned to single BNetzA power plant,,0.35860000000000003,,U71,110,Netzgesellschaft Düsseldorf mbH ,Lausward E (Emil) DT-1,51.221379999999996,6.731310000000001,
BNA0222,DE,Stadtwerke Düsseldorf AG,GT,40233,Düsseldorf,Behrenstraße 85,Nordrhein-Westfalen,GTKW,1977,1977.0,,,operating,oil,GT,,no,no,86.2,,,,,0.3201999999999998,,U50,110,Netzgesellschaft Düsseldorf mbH ,,51.222794,6.813696,
BNA0223a,DE,Stadtwerke Düsseldorf AG,DT,40233,Düsseldorf,Behrenstraße 85,Nordrhein-Westfalen,Flingern T4,1955,1955.0,,,special_case,waste,ST,,no,no,48.9,,,,,0.33,,U50,25,Netzgesellschaft Düsseldorf mbH ,,51.22455,6.81543,
BNA0223b,DE,Stadtwerke Düsseldorf AG,DT,40233,Düsseldorf,Behrenstraße 85,Nordrhein-Westfalen,Flingern T1,2000,2000.0,,,operating,waste,ST,,no,yes,53.7,,,,,0.33,,U50,25,Netzgesellschaft Düsseldorf mbH ,,51.222794,6.813696,
BNA0224,DE,,,16225,Eberswalde,,Brandenburg,,2006,2006.0,,,operating,biomass,ST,,yes,,20.0,,,,,0.38,,,HS,E.DIS AG,,52.851544999999994,13.77806,
BNA0228,DE,E.ON Kraftwerke GmbH,Waldeck1/Bringhausen,34549,Edertal Hemfurth-Edersee,Kraftwerkstraße 10,Hessen,Waldeck1/Bringhausen,1931,1931.0,2009.0,,operating,pumped_storage,PSP,,no,no,143.0,147.3,,List matching type: Single UBA power plant assigned to single BNetzA power plant,,,,Schaltanlage vor Ort,110,Avacon AG,Waldeck I / Eder,51.167139,9.046832,
BNA0229,DE,E.ON Kraftwerke GmbH,Waldeck 2,34549,Edertal Hemfurth-Edersee,Kraftwerkstraße 10,Hessen,Waldeck 2,1974,1974.0,2009.0,,operating,pumped_storage,PSP,,no,no,480.0,480.0,,List matching type: Single UBA power plant assigned to single BNetzA power plant,,,,Schaltanlage vor Ort,380,TenneT TSO GmbH ,Waldeck II / Eder,51.167139,9.046832,
BNA0230,DE,E.ON Kraftwerke GmbH,Hemfurth,34549,Edertal Hemfurth-Edersee,Ederstraße,Hessen,Hemfurth,1915,1915.0,,,operating,reservoir,RES,,no,no,20.0,,,,,,,Schaltanlage vor Ort,110,Avacon AG,,51.167139,9.046832,
BNA0232a,DE,Sappi Ehingen GmbH,Werkskraftwerk Sappi Ehingen,89584,Ehingen,Kessel 5 - Turbine 5,Baden-Württemberg,,1990,1990.0,,,operating,biomass,ST,,yes,yes,13.2,,,,,0.38,,,20,Netze BW GmbH,,48.26698,9.72615,
BNA0232b,DE,Sappi Ehingen GmbH,Werkskraftwerk Sappi Ehingen,89584,Ehingen,Kessel 4 - Turbine 3,Baden-Württemberg,,1961,1961.0,,,operating,biomass,ST,,no,yes,8.0,,,,,0.38,,,6,Netze BW GmbH,,48.26693,9.72626,
BNA0232c,DE,Sappi Ehingen GmbH,Werkskraftwerk Sappi Ehingen,89584,Ehingen,Kessel 6 - Turbine 4,Baden-Württemberg,,1976,1976.0,,,operating,gas,ST,,no,yes,4.0,,,,,0.35860000000000003,,,6,Netze BW GmbH,,48.26693,9.72626,
BNA0233,DE,Stora Enso Sachsen GmbH,Kombikraftwerk,04838,Eilenburg,Am Schanzberg 1,Sachsen,,1993,1993.0,,,operating,gas,ST,,no,yes,46.6,,,,,0.37729999999999997,,UW Kospa,110,Mitteldeutsche Netzgesellschaft Strom mbH,,51.46561,12.592039999999999,
BNA0237,DE,EnBW Propower GmbH,EBS-Heizkraftwerk,15890,Eisenhüttenstadt,,Brandenburg,,2011,2011.0,,,operating,other_non_renewable,ST,,no,yes,23.5,,,,,,,Umspannwerk Eisenhüttenstadt ,110,E.DIS AG,,52.16883,14.640789999999999,
BNA0238a,DE,Arcelor Mittal Eisenhüttenstadt GmbH,IKW,15890,Eisenhüttenstadt,Werkstraße 1,Brandenburg,,1953,1953.0,2013.0,,operating,other_non_renewable,ST,CHP,no,yes,45.0,51.68316831683168,,List matching type: UBA capacity distributed proportionally to multiple BNetzA power plants,,,,UW Eisenhüttenstadt Pohlitz,110,E.DIS AG,Eisenhüttenstadt,52.1674,14.626970000000002,
BNA0238b,DE,Arcelor Mittal Eisenhüttenstadt GmbH,IKW,15890,Eisenhüttenstadt,Werkstraße 1,Brandenburg,Block 7,2013,2013.0,2013.0,,operating,other_non_renewable,ST,CHP,no,yes,56.0,64.31683168316832,,List matching type: UBA capacity distributed proportionally to multiple BNetzA power plants,,,,,30,E.DIS AG,Eisenhüttenstadt,52.1674,14.626970000000002,
BNA0239,DE,E.ON Kraftwerke GmbH,Huntorf,26931,Elsfleth,,Niedersachsen,,1978,1978.0,2006.0,,operating,gas,GT,,no,no,321.0,321.0,,List matching type: Single UBA power plant assigned to single BNetzA power plant,0.42,0.39559999999999906,https://www.vde.com/de/fg/ETG/Archiv/Arbeitsgebiete/Erzeugung/Seiten/Druckluftspeicher-Kraftwerke.aspx,Huntorf,220,TenneT TSO GmbH ,Huntorf CAES,53.18969,8.40869,
BNA0242,DE,Danpower GmbH,,04910,Elsterwerda,,Brandenburg,,2004,2004.0,,,operating,biomass,ST,,yes,,12.6,,,,,0.38,,,HS,Mitteldeutsche Netzgesellschaft Strom mbH,,51.466159999999995,13.50464,
BNA0243,DE,Palm Power GmbH & Co. KG,HKW Eltmann,97483,Eltmann,Industriestraße 23,Bayern,,2008,2008.0,,,operating,gas,ST,,no,yes,57.0,,,,,0.39380000000000015,,Palm Eltmann,110,Bayernwerk AG,,49.983999999999995,10.65137,
BNA0244,DE,Statkraft Markets GmbH,Emden Biomasse,26725,Emden,,Niedersachsen,,2005,2005.0,,,operating,biomass,ST,,yes,yes,20.0,,,,,0.38,,,110,TenneT TSO GmbH ,,53.342169999999996,7.206239999999999,
BNA0245a,DE,Statkraft Markets GmbH,Emden Gas,26725,Emden,Gasturbine,Niedersachsen,,1973,1973.0,,,operating,gas,ST,,no,no,50.0,,,,0.42,0.35530000000000017,http://www.energie-chronik.de/120212.htm,Emden,220,TenneT TSO GmbH ,,53.342169999999996,7.206239999999999,
BNA0245b,DE,Statkraft Markets GmbH,Emden Gas,26725,Emden,Dampfturbine,Niedersachsen,,1973,1973.0,,,shutdown_temporary,gas,ST,,no,no,380.0,,,,0.42,0.35530000000000017,http://www.energie-chronik.de/120212.htm,Emden,220,TenneT TSO GmbH ,,53.342169999999996,7.206239999999999,
BNA0250a,DE,PN Biomasseheizkraftwerk Emlichheim GmbH & Co. KG,Biomasse-HKW,49824,Emlichheim,Neuerostraße 8,Niedersachsen,,2006,2006.0,,,operating,biomass,ST,,yes,yes,20.0,,,,,0.38,,,MS,Westnetz GmbH,,52.619274,6.8693100000000005,
BNA0250b,DE,BEKW Bioenergiekraftwerk Emsland GmbH & Co. KG,,49824,Emlichheim,Emslandstr. 900 Z,Niedersachsen,,2014,2014.0,,,operating,biomass,ST,,yes,yes,10.6,,,,,0.38,,DE0073304982400000000000000149412,10,Westnetz GmbH,,52.619130000000006,6.872126,
BNA0251,DE,E.ON Kernkraft GmbH,Grohnde,31857,Emmerthal,,Niedersachsen,KWG,1985,1985.0,,,operating,uranium,ST,,no,no,1360.0,1430.0,,List matching type: Single UBA power plant assigned to single BNetzA power plant,0.34600000000000003,0.33,http://www.eon.com/content/eon-com/de/about-us/structure/asset-finder/grohnde.html,Grohnde,380,TenneT TSO GmbH ,Grohnde (KWG),52.035641,9.413497,
BNA0252,DE,Gemeinschaft nach Bruchteilen der Saarstahl AG (SAG) und Saarschmiede GmbH Freiformschmiede (SSF),Kraftwerk Ensdorf,66806,Ensdorf,Kurt Kessler Str. 1,Saarland,Block 3,1971,1971.0,2002.0,,operating,coal,ST,,no,no,283.0,310.0,60.0,List matching type: Single UBA power plant assigned to single BNetzA power plant,,0.4299999999999997,,Schaltanlage Ensdorf,110,VSE Verteilnetz GmbH,Ensdorf 3,49.293248,6.770936999999999,
BNA0253,DE,"VSE AG, Kraftwerk Ensdorf",Kraftwerk Ensdorf,66806,Ensdorf,Kurt-Kessler-Str.,Saarland,Block 1,1963,1963.0,2002.0,,operating,coal,ST,,no,yes,106.0,120.0,66.0,List matching type: Single UBA power plant assigned to single BNetzA power plant,0.36,0.4299999999999997,http://www.spd-saar.de/uploads/media/konzept_bergbau.pdf,Schaltanlage Ensdorf (UA-Ensdorf); DE 0001816680600000000000000580138,220,Amprion GmbH,Ensdorf 1,49.293248,6.770936999999999,
BNA0255,DE,SWE Energie GmbH,HKW Iderhoffstraße,99085,Erfurt,,Thüringen,,1996,1996.0,,,seasonal_conservation,gas,ST,,no,yes,11.0,,,,,0.38060000000000027,,UW Iderhoffstraße,10,SWE Netz GmbH (Erfurt),,50.978567,11.05158,
BNA0256a,DE,SWE Energie GmbH,HKW Erfurt-Ost,99087,Erfurt,,Thüringen,,2000,2000.0,,,operating,gas,CC,,no,yes,76.5,83.16131989000917,,List matching type: UBA capacity distributed proportionally to multiple BNetzA power plants,0.364,0.5399999999999991,https://www.umweltbundesamt.de/sites/default/files/medien/378/publikationen/climate_change_02_2014_kwk-ausbau_entwicklung_prognose_wirksamkeit_der_anreize_im_kwk-gesetz_0.pdf,UW Erfurt-Ost,110,SWE Netz GmbH (Erfurt),Erfurt-Ost,50.989612,11.027635,
BNA0256b,DE,SWE Energie GmbH,HKW Erfurt-Ost,99087,Erfurt,,Thüringen,Linie 3,2014,2014.0,,,operating,gas,CC,,no,yes,32.6,35.438680109990834,,List matching type: UBA capacity distributed proportionally to multiple BNetzA power plants,0.364,0.602999999999998,http://stefanschroeter.com/539-neue-gasturbine-fuer-das-heizkraftwerk-erfurt-ost.html,,110,SWE Netz GmbH (Erfurt),Erfurt-Ost,50.989612,11.027635,
BNA0259,DE,Innwerk AG,Ering,94140,Ering,Innwerkstraße 38,Bayern,Ering,1942,1942.0,,,operating,run_of_river,ROR,,no,no,36.5,,,,,,,Schaltanlage vor Ort,110,Bayernwerk AG,,48.293512899999996,13.1585196,
BNA0261a,DE,Erlanger Stadtwerke AG,HKW Erlangen,91052,Erlangen, Äußere Bruckerstr. 33,Bayern,GuD I,2005,2005.0,,,operating,gas,CC,,no,yes,21.6,,,,,0.5624999999999982,,UW Mitte,20,Erlanger Stadtwerke AG,,49.59297,11.001619999999999,
BNA0261b,DE,Erlanger Stadtwerke AG,HKW Erlangen,91052,Erlangen, Äußere Bruckerstr. 33,Bayern,K6 DT2,1980,1980.0,,,operating,coal,ST,,no,yes,17.4,,,,,0.375,,UW Mitte,20,Erlanger Stadtwerke AG,,49.59283,11.00148,
BNA0261c,DE,Erlanger Stadtwerke AG,HKW Erlangen,91052,Erlangen, Äußere Bruckerstr. 33,Bayern,GuD 2,2014,2014.0,,,operating,gas,CC,,no,yes,6.7,,,,,0.602999999999998,,Hammerbacherstr.,20,Erlanger Stadtwerke AG,,49.593492,11.001093,
BNA0263,DE,E.ON Kernkraft GmbH,Isar 2,84051,Essenbach,,Bayern,KKI 2,1988,1988.0,,,operating,uranium,ST,,no,no,1410.0,1485.0,,List matching type: Single UBA power plant assigned to single BNetzA power plant,,0.33,,Isar,380,TenneT TSO GmbH ,Isar 2 - Essenbach (KKI) (Ohu),48.6046,12.295069999999999,
BNA0268,DE,Mark-E AG,Pumpspeicherwerk Rönkhausen,57413,Finnentrop,,Nordrhein-Westfalen,PSW,1969,1969.0,2003.0,,operating,pumped_storage,PSP,,no,,138.0,140.0,,List matching type: Single UBA power plant assigned to single BNetzA power plant,,,,U 101 und U 102,110,Enervie AssetNetWork GmbH ,Rönkhausen 1 u. 2 / Glingetal,51.22475,7.99281,
BNA0269,DE,Stadtwerke Flensburg GmbH,HKW Flensburg,24939,Flensburg,,Schleswig-Holstein,Block 5,1974,1974.0,,2012.0,shutdown,oil,ST,,no,yes,30.0,,,,,0.35640000000000027,,Stadtwerke Flensburg GmbH,60,Stadtwerke Flensburg GmbH,,54.80506,9.43238,
BNA0270,DE,Stadtwerke Flensburg GmbH,Heizkraftwerk FL,24939,Flensburg,,Schleswig-Holstein,Block 11,1992,1992.0,,,operating,coal,ST,CHP,no,yes,27.0,30.122448979591837,,List matching type: UBA capacity distributed proportionally to multiple BNetzA power plants,,0.40500000000000025,,SW Flensburg GmbH,60,Stadtwerke Flensburg GmbH ,Flensburg K07 bis K11,54.80495,9.43244,
BNA0271,DE,Stadtwerke Flensburg GmbH,Heizkraftwerk FL,24939,Flensburg,,Schleswig-Holstein,Block 10,1988,1988.0,,,operating,coal,ST,CHP,no,yes,29.0,32.35374149659864,,List matching type: UBA capacity distributed proportionally to multiple BNetzA power plants,,0.3949999999999996,,SW Flensburg GmbH,60,Stadtwerke Flensburg GmbH ,Flensburg K07 bis K11,54.80495,9.43244,
BNA0272,DE,Stadtwerke Flensburg GmbH,Heizkraftwerk FL,24939,Flensburg,,Schleswig-Holstein,Block 9,1985,1985.0,,,operating,coal,ST,CHP,no,yes,33.0,36.816326530612244,,List matching type: UBA capacity distributed proportionally to multiple BNetzA power plants,,0.3875000000000002,,SW Flensburg GmbH,60,Stadtwerke Flensburg GmbH ,Flensburg K07 bis K11,54.80495,9.43244,
BNA0273,DE,Stadtwerke Flensburg GmbH,Heizkraftwerk FL,24939,Flensburg,,Schleswig-Holstein,Block 8,1982,1982.0,,,operating,coal,ST,CHP,no,yes,35.0,39.04761904761905,,List matching type: UBA capacity distributed proportionally to multiple BNetzA power plants,,0.3799999999999999,,SW Flensburg GmbH,60,Stadtwerke Flensburg GmbH ,Flensburg K07 bis K11,54.80495,9.43244,
BNA0274,DE,Stadtwerke Flensburg GmbH,Heizkraftwerk FL,24939,Flensburg,,Schleswig-Holstein,Block 7,1978,1978.0,,,operating,coal,ST,CHP,no,yes,23.0,25.65986394557823,,List matching type: UBA capacity distributed proportionally to multiple BNetzA power plants,,0.3700000000000001,,SW Flensburg GmbH,60,Stadtwerke Flensburg GmbH ,Flensburg K07 bis K11,54.80495,9.43244,
BNA0277,DE,MVV Energie AG,BMKW Flörsheim Wicker,65439,Flörsheim Wicker,Am Steinmühlenweg 5,Hessen,,2003,2003.0,,,operating,biomass,ST,,yes,no,12.6,,,,,0.38,,,20,Syna GmbH ,,50.022602,8.377208999999999,
BNA0278,DE,EnBW Energie Baden-Württemberg AG,Rudolf-Fettweis-Werk     ,76596,Forbach,Werkstraße 5,Baden-Württemberg,Forb/ Murgwerk,1918,1918.0,,,operating,run_of_river,ROR,,no,no,22.0,,,,,,,Forbach,110,Netze BW GmbH,,48.673188399999994,8.355705841,
BNA0279,DE,EnBW Energie Baden-Württemberg AG,Rudolf-Fettweis-Werk     ,76596,Forbach,Werkstraße 5,Baden-Württemberg,Pumpspeicherkraftwerk Schwarzenbachwerk,1926,1926.0,,,operating,pumped_storage,PSP,,no,no,43.0,,,,,,,Forbach,110,Netze BW GmbH,,48.6693835,8.353047617,
BNA0283,DE,Mainova AG,BKF,60382,Frankfurt am Main,Alt Fechenheim 34,Hessen,,2004,2004.0,,,operating,biomass,ST,,yes,yes,12.4,,,,,0.38,,UW Hanauer Landstraße,10,NRM Netzdienste Rhein-Main GmbH,,50.12943,8.76792,
BNA0284,DE,Stadtwerke Frankfurt (Oder) GmbH,Heizkraftwerk FFO,15236,Frankfurt Oder,,Brandenburg,Block1-GuD-EK,1997,1997.0,,,operating,lignite,ST,,no,yes,45.0,,,,0.4,0.39279999999999937,https://books.google.de/books?id=3gjxbjLZUIcC&pg=PA44&lpg=PA44&dq=Grevenbroich-Frimmersdorf+wirkungsgrad&source=bl&ots=Ov4NMifXMN&sig=9UFMsjWijfvUpdU2_A-dtbyh_tw&hl=de&sa=X&ved=0ahUKEwiki-rIupLKAhXFfw8KHe3cDRwQ6AEIQzAH#v=onepage&q=Grevenbroich-Frimmersdorf%20wirkungsgrad&f=false,"Zelle 3 und 13 Schaltanlage ""Am Hohen Feld 4""",20,Netzgesellschaft Frankfurt (Oder) mbH,,52.346000000000004,14.546,
BNA0285,DE,Mainova AG,HKW Niederrad,60528,Frankfurt am Main,Lyoner Straße  8,Hessen,Block 1,2005,2005.0,,,operating,gas,CC,CHP,no,yes,70.0,75.55555555555556,,List matching type: UBA capacity distributed proportionally to multiple BNetzA power plants,,0.5624999999999982,,UW Goldsteinstraße,110,NRM Netzdienste Rhein-Main GmbH,Frankfurt-Niederrad,50.0856,8.62785,
BNA0286,DE,Mainova AG,HKW West,60627,Frankfurt am Main,Gutleutstraße 231,Hessen,Block 4,1994,1994.0,,,operating,gas,GT,CHP,no,yes,99.0,100.0,150.0,List matching type: Single UBA power plant assigned to single BNetzA power plant,,0.36439999999999984,,UW Gutleutstraße,110,NRM Netzdienste Rhein-Main GmbH,Frankfurt-West 4,50.09843,8.65313,
BNA0287a,DE,Mainova AG,MHKW Frankfurt,60440,Frankfurt am Main,Heddernheimer Landstraße 158,Hessen,"T 3 (nur alleiniger Betrieb, kein gemeinsamer Betrieb mit T 7 möglich)",1998,1998.0,,,operating,waste,ST,,no,yes,26.0,,,,,0.33,,UW Heddernheim,30,NRM Netzdienste Rhein-Main GmbH,,50.16173,8.63596,
BNA0287b,DE,Mainova AG,MHKW Frankfurt,60439,Frankfurt am Main,Heddernheimer Landstraße 157,Hessen,"T 7 (nur alleiniger Betrieb, kein gemeinsamer Betrieb mit T 3 möglich)",2006,2006.0,,,operating,waste,ST,,no,yes,46.5,,,,,0.33,,UW Heddernheim,30,NRM Netzdienste Rhein-Main GmbH,,50.16171,8.63625,
BNA0288,DE,Mainova AG,HKW Niederrad,60528,Frankfurt am Main,Lyoner Straße  9,Hessen,Block 2,1973,1973.0,,,operating,gas,CC,CHP,no,yes,56.0,60.44444444444444,,List matching type: UBA capacity distributed proportionally to multiple BNetzA power plants,,0.4184999999999981,,UW Goldsteinstraße,110,NRM Netzdienste Rhein-Main GmbH,Frankfurt-Niederrad,50.0856,8.62785,
BNA0289a,DE,Mainova AG,HKW West,60627,Frankfurt am Main,Gutleutstraße 231,Hessen,M4,1954,1954.0,,,operating,other_non_renewable,ST,CHP,no,no,19.7,19.87946741415557,,List matching type: UBA capacity distributed proportionally to multiple BNetzA power plants,,,,UW Gutleutstraße,30,NRM Netzdienste Rhein-Main GmbH,Frankfurt-West 2 u. 3,50.09847,8.653030000000001,
BNA0289b,DE,Mainova AG,HKW West,60627,Frankfurt am Main,Gutleutstraße 231,Hessen,Block 2,1989,1989.0,,,operating,coal,ST,CHP,no,yes,61.5,62.06026629292222,,List matching type: UBA capacity distributed proportionally to multiple BNetzA power plants,,0.39749999999999996,,UW Gutleutstraße,110,NRM Netzdienste Rhein-Main GmbH,Frankfurt-West 2 u. 3,50.09843,8.65313,
BNA0290,DE,Mainova AG,HKW West,60627,Frankfurt am Main,Gutleutstraße 231,Hessen,Block 3,1989,1989.0,,,operating,coal,ST,CHP,no,yes,61.5,62.06026629292222,,List matching type: UBA capacity distributed proportionally to multiple BNetzA power plants,,0.39749999999999996,,UW Gutleutstraße,110,NRM Netzdienste Rhein-Main GmbH,Frankfurt-West 2 u. 3,50.09843,8.65313,
BNA0292,DE,RWE Power AG,Frechen/Wachtberg,50226,Frechen,,Nordrhein-Westfalen,Frechen/Wachtberg,1959,1959.0,1988.0,,operating,lignite,ST,IPP,no,yes,118.0,201.0,251.0,List matching type: Single UBA power plant assigned to single BNetzA power plant,,0.3711999999999991,,Frechen,110,Westnetz GmbH,Frechen / Wachtberg,50.8976,6.793099000000001,
BNA0293,DE,Solvay Acetow GmbH,GuD Anlage WVK,79108,Freiburg,,Baden-Württemberg,GuD Anlage,1998,1998.0,,,operating,gas,CC,,no,yes,60.1,,,,,0.5309999999999988,,110kV Schalter WVK GuD Anlage,110,bnNETZE GmbH ,,48.020738,7.84588,
BNA0302,DE,RWE Power AG,Frimmersdorf,41517,Frimmersdorf,,Nordrhein-Westfalen,C,1957,1957.0,,2011.0,shutdown,lignite,ST,,no,no,129.0,,,,,0.2967999999999993,,Frimmersdorf,110,Westnetz GmbH,,51.05744518,6.577080395,
BNA0303,DE,RWE Power AG,Frimmersdorf,41517,Frimmersdorf,,Nordrhein-Westfalen,D,1957,1957.0,,2011.0,shutdown,lignite,ST,,no,no,130.0,,,,,0.2967999999999993,,Frimmersdorf,110,Westnetz GmbH,,51.05744518,6.577080395,
BNA0304,DE,RWE Power AG,Frimmersdorf,41517,Frimmersdorf,,Nordrhein-Westfalen,G,1960,1960.0,,2011.0,shutdown,lignite,ST,,no,no,124.0,,,,,0.3039999999999994,,Rommerskirchen,220,Amprion GmbH,,51.05744518,6.577080395,
BNA0305,DE,RWE Power AG,Frimmersdorf,41517,Grevenbroich-Frimmersdorf,,Nordrhein-Westfalen,E,1959,1959.0,,2012.0,shutdown,lignite,ST,,no,no,130.0,,,,,0.30159999999999965,,Osterath,220,Amprion GmbH,,51.05744518,6.577080395,
BNA0306,DE,RWE Power AG,Frimmersdorf,41517,Grevenbroich-Frimmersdorf,,Nordrhein-Westfalen,F,1960,1960.0,,2012.0,shutdown,lignite,ST,,no,no,132.0,,,,,0.3039999999999994,,Osterath,220,Amprion GmbH,,51.05744518,6.577080395,
BNA0307,DE,RWE Power AG,Frimmersdorf,41517,Frimmersdorf,,Nordrhein-Westfalen,I,1960,1960.0,,2012.0,shutdown,lignite,ST,,no,no,128.0,,,,,0.3039999999999994,,Opladen,380,Amprion GmbH,,51.05744518,6.577080395,
BNA0308,DE,RWE Power AG,Frimmersdorf,41517,Frimmersdorf,,Nordrhein-Westfalen,K,1962,1962.0,,2012.0,shutdown,lignite,ST,,no,no,136.0,,,,,0.30879999999999885,,Opladen,380,Amprion GmbH,,51.05744518,6.577080395,
BNA0309,DE,RWE Power AG,Frimmersdorf,41517,Grevenbroich-Frimmersdorf,,Nordrhein-Westfalen,N,1964,1964.0,,2012.0,shutdown,lignite,ST,,no,no,135.0,,,,,0.3135999999999992,,Gohrpunkt,220,Amprion GmbH,,51.05744518,6.577080395,
BNA0310,DE,RWE Power AG,Frimmersdorf,41517,Grevenbroich-Frimmersdorf,,Nordrhein-Westfalen,M,1962,1962.0,,2012.0,shutdown,lignite,ST,,no,no,138.0,,,,,0.30879999999999885,,Frimmersdorf,110,Westnetz GmbH,,51.05744518,6.577080395,
BNA0311,DE,RWE Power AG,Frimmersdorf,41517,Grevenbroich-Frimmersdorf,,Nordrhein-Westfalen,L,1962,1962.0,,2012.0,shutdown,lignite,ST,,no,no,131.0,,,,,0.30879999999999885,,Frimmersdorf,110,Westnetz GmbH,,51.05744518,6.577080395,
BNA0312,DE,RWE Power AG,Frimmersdorf,41517,Grevenbroich-Frimmersdorf,,Nordrhein-Westfalen,O,1964,1964.0,,2012.0,shutdown,lignite,ST,,no,no,133.0,,,,,0.3135999999999992,,Rommerskirchen,220,Amprion GmbH,,51.05744518,6.577080395,
BNA0313,DE,RWE Power AG,Frimmersdorf,41517,Grevenbroich-Frimmersdorf,,Nordrhein-Westfalen,P,1966,1966.0,1990.0,,operating,lignite,ST,CHP,no,yes,284.0,325.0,654.0,List matching type: Single UBA power plant assigned to single BNetzA power plant,,0.37599999999999945,,Gohrpunkt,220,Amprion GmbH,Frimmersdorf P,51.05744518,6.577080395,
BNA0314,DE,RWE Power AG,Frimmersdorf,41517,Grevenbroich-Frimmersdorf,,Nordrhein-Westfalen,Q,1970,1970.0,1990.0,,operating,lignite,ST,,no,no,278.0,310.0,,List matching type: Single UBA power plant assigned to single BNetzA power plant,,0.37599999999999945,,Norf,220,Amprion GmbH,Frimmersdorf Q,51.05744518,6.577080395,
BNA0318,DE,RhönEnergie Fulda GmbH,Kraftwerk Fulda,36043,Fulda,,Hessen,,2011,2011.0,,,operating,oil,ST,,no,no,24.8,,,,,0.3971,,,20,OsthessenNetz GmbH,,50.566359999999996,9.68614,
BNA0324,DE,VERBUND-Innkraftwerke GmbH,Gars,83536,Gars,Agg 4,Bayern,,1938,1938.0,,,operating,run_of_river,ROR,,no,no,25.0,,,,,,,UW Gars,110,Bayernwerk AG,,48.15395,12.311069999999999,
BNA0327,DE,Vattenfall Europe Generation AG,Geesthacht,21502,Geesthacht,Elbuferstr. 49,Schleswig-Holstein,PSS A,1958,1958.0,,,operating,pumped_storage,PSP,,no,no,119.1,120.0,,List matching type: UBA capacity distributed proportionally to multiple BNetzA power plants,,,,Bergedorf,110,Stromnetz Hamburg GmbH,Geesthacht A-C / Elbe,53.42605,10.3359,
BNA0328,DE,Vattenfall Europe Generation AG,Geesthacht,21502,Geesthacht,Elbuferstr. 49,Schleswig-Holstein,PSS B,1958,1958.0,,,operating,pumped_storage,PSP,,no,no,,,,List matching type: UBA capacity distributed proportionally to multiple BNetzA power plants,,,,Bergedorf,110,Stromnetz Hamburg GmbH,Geesthacht A-C / Elbe,53.42605,10.3359,
BNA0329,DE,Vattenfall Europe Generation AG,Geesthacht,21502,Geesthacht,Elbuferstr. 49,Schleswig-Holstein,PSS C,1958,1958.0,,,operating,pumped_storage,PSP,,no,no,,,,List matching type: UBA capacity distributed proportionally to multiple BNetzA power plants,,,,Bergedorf,110,Stromnetz Hamburg GmbH,Geesthacht A-C / Elbe,53.42605,10.3359,
BNA0331,DE,E.ON Kraftwerke GmbH,Scholven,45896,Gelsenkirchen,,Nordrhein-Westfalen,C,1969,1969.0,,,operating,coal,ST,,no,yes,345.0,370.0,,List matching type: Single UBA power plant assigned to single BNetzA power plant,,0.34750000000000014,,Scholven,220,Amprion GmbH,Gelsenkirchen-Scholven C,51.60236802,7.009894096,
BNA0332,DE,E.ON Kraftwerke GmbH,Scholven,45896,Gelsenkirchen,,Nordrhein-Westfalen,B,1968,1968.0,,,operating,coal,ST,,no,yes,345.0,370.0,,List matching type: Single UBA power plant assigned to single BNetzA power plant,,0.34499999999999975,,Scholven,220,Amprion GmbH,Gelsenkirchen-Scholven B,51.60236802,7.009894096,
BNA0333,DE,E.ON Kraftwerke GmbH,Scholven,45896,Gelsenkirchen,,Nordrhein-Westfalen,D,1970,1970.0,,2014.0,shutdown,coal,ST,,no,yes,345.0,,,,,0.34999999999999964,,Scholven,220,Amprion GmbH,,51.60236802,7.009894096,
BNA0334,DE,E.ON Kraftwerke GmbH,Scholven,45896,Gelsenkirchen,,Nordrhein-Westfalen,E,1971,1971.0,,2014.0,shutdown,coal,ST,,no,yes,345.0,,,,,0.35250000000000004,,Scholven,220,Amprion GmbH,,51.60236802,7.009894096,
BNA0335,DE,E.ON Kraftwerke GmbH,Scholven,45896,Gelsenkirchen,,Nordrhein-Westfalen,F,1979,1979.0,,2014.0,shutdown,coal,ST,,no,no,676.0,,,,,0.3724999999999996,,Scholven,380,Amprion GmbH,,51.60236802,7.009894096,
BNA0336,DE,E.ON Kraftwerke GmbH,FWK Buer,45896,Gelsenkirchen,,Nordrhein-Westfalen,,1985,1985.0,,,operating,coal,ST,,no,yes,70.0,,,,,0.3875000000000002,,Scholven,35,Amprion GmbH,,51.596959999999996,7.004519999999999,
BNA0337,DE,Donau-Wasserkraft AG,PSW Langenprozelten,97737,Gemünden,,Bayern,entfällt,1974,1974.0,,,operating,pumped_storage,PSP,,no,no,164.0,168.4,,List matching type: Single UBA power plant assigned to single BNetzA power plant,,,,loco Kraftwerk,110,DB Energie GmbH (110 kV Anschluß in das Netz der DB und 20 kV Anschluß an E.ON Bayern für den Eigenbedarf),Langenprozelten / Main,50.053129999999996,9.58137,
BNA0343,DE,Energieversorgung Gera GmbH,Heizkraftwerk Gera-Nord,07546,Gera,Siemensstraße 45,Thüringen,,1996,1996.0,,,operating,gas,ST,,no,yes,74.0,,,,,0.38060000000000027,,,110,GeraNetz GmbH ,,50.9076,12.06102,
BNA0347,DE,Biomasse Heizkraftwerk Herbrechtingen GmbH,,89537,Giengen,,Baden-Württemberg,,2004,2004.0,,,operating,biomass,ST,,yes,,15.7,,,,,0.38,,,HS,Netze BW GmbH,,48.62833,10.20078,
BNA0350,DE,Vattenfall Europe Generation AG,Goldisthal,98746,Goldisthal,Am Rotseifenbach,Thüringen,PSS A,2004,2004.0,,,operating,pumped_storage,PSP,,no,no,1052.0,265.0,,List matching type: Single UBA power plant assigned to single BNetzA power plant,0.8,,https://www.vde.com/de/fg/ETG/Archiv/Aktuelles/Seiten/Goldisthal.aspx,Altenfeld,380,50 Hertz Transmission GmbH,Goldisthal A / Schwarzatal,50.50975864,11.02087498,
BNA0351,DE,Vattenfall Europe Generation AG,Goldisthal,98746,Goldisthal,Am Rotseifenbach,Thüringen,PSS B,2003,2003.0,,,operating,pumped_storage,PSP,,no,no,,265.0,,List matching type: Single UBA power plant assigned to single BNetzA power plant,,,,Altenfeld,380,50 Hertz Transmission GmbH,Goldisthal B / Schwarzatal,50.50975864,11.02087498,
BNA0352,DE,Vattenfall Europe Generation AG,Goldisthal,98746,Goldisthal,Am Rotseifenbach,Thüringen,PSS C,2004,2004.0,,,operating,pumped_storage,PSP,,no,no,,265.0,,List matching type: Single UBA power plant assigned to single BNetzA power plant,,,,Altenfeld,380,50 Hertz Transmission GmbH,Goldisthal C / Schwarzatal,50.50975864,11.02087498,
BNA0353,DE,Vattenfall Europe Generation AG,Goldisthal,98746,Goldisthal,Am Rotseifenbach,Thüringen,PSS D,2004,2004.0,,,operating,pumped_storage,PSP,,no,no,,265.0,,List matching type: Single UBA power plant assigned to single BNetzA power plant,,,,Altenfeld,380,50 Hertz Transmission GmbH,Goldisthal D / Schwarzatal,50.50975864,11.02087498,
BNA0354,DE,Georg-August-Universität Göttingen Stiftung Öffentlichen Rechts,HKW Göttingen,37075,Göttingen,Rudolf-Diesel-Straße 1,Niedersachsen,,1998,1998.0,,,operating,gas,ST,,no,yes,18.8,,,,,0.38280000000000003,,DE0003303707310300000000001902150,20,EnergieNetz Mitte GmbH ,,51.55337,9.93374,
BNA0355,DE,E.ON Kernkraft GmbH,Grafenrheinfeld,97506,Grafenrheinfeld,,Bayern,KKG,1982,1982.0,,2015.0,shutdown,uranium,ST,,no,no,1275.0,,,,,0.33,,Grafenrheinfeld,380,TenneT TSO GmbH ,,49.984424,10.181753,
BNA0360,DE,Energieerzeugungsgesellschaft Greifswald GmbH,"HKW ""Helmshäger Berg""",17489,Greifswald,,Mecklenburg-Vorpommern,Gasturbine,1996,1996.0,,,operating,gas,GT,,no,yes,14.7,,,,,0.36959999999999926,,MSA HKW,20,Stromversorgung Greifswald GmbH,,54.07039,13.39886,
BNA0361,DE,KGW - Kraftwerk Grenzach-Wyhlen GmbH,Kraftwerk Grenzach-Wyhlen,79639,Grenzach-Wyhlen,,Baden-Württemberg,,2004,2004.0,,,operating,gas,ST,,no,yes,40.0,,,,,0.3894000000000002,,"79639 Grenzach-Wyhlen, Rheinallee, FlSt-Nr. 478/5; US KGW Kraftwerk Grenzach-Wyhlen GmbH",110,ED Netze GmbH,,47.53971,7.706923,
BNA0362,DE,Energiedienst AG,KW Wyhlen,79639,Grenzach-Wyhlen,,Baden-Württemberg,KW Wyhlen,1912,1912.0,,,operating,run_of_river,ROR,,no,no,37.9,,,,,,,Umspannwerk Wyhlen,20,ED Netze GmbH,,47.5523554,7.6580881,
BNA0364,DE,Innwerk AG,Jochenstein,94107,Griesbach,Am Kraftwerk 2,Bayern,Jochenstein,1955,1955.0,,,operating,run_of_river,ROR,,no,no,66.0,133.7,,List matching type: Single UBA power plant assigned to single BNetzA power plant,,,,Schaltanlage vor Ort,220,Bayernwerk AG,Jochenstein / Donau,48.5195636,13.7085052,
BNA0369,DE,envia THERM GmbH,Spitzenlastkraftwerk Sermuth,04668,Großbothen,,Sachsen,,1995,1995.0,,,operating,oil,ST,,no,no,17.0,,,,,0.37950000000000017,,UW Sermuth,110,Mitteldeutsche Netzgesellschaft Strom mbH,,51.161367999999996,12.781496,
BNA0373,DE,envia THERM GmbH,Spitzenlastkraftwerk Großkayna,06242,Großkayna,,Sachsen-Anhalt,,1994,1994.0,,,operating,oil,GT,,no,no,120.0,129.0,,List matching type: Single UBA power plant assigned to single BNetzA power plant,,0.36439999999999984,,UW Großkayna/neu,110,Mitteldeutsche Netzgesellschaft Strom mbH,Großkayna,51.291920000000005,11.94645,
BNA0374,DE,E.ON Kraftwerke GmbH,Staudinger,63538,Großkrotzenburg,,Hessen,4,1977,1977.0,,,reserve,gas,ST,,no,no,622.0,637.6,,List matching type: Single UBA power plant assigned to single BNetzA power plant,,0.35970000000000013,,Großkrotzenburg,380,TenneT TSO GmbH ,Staudinger 4 (Großkrotzenburg),50.088553000000005,8.953399000000001,
BNA0375,DE,E.ON Kraftwerke GmbH,Staudinger,63538,Großkrotzenburg,,Hessen,1,1965,1965.0,,2013.0,shutdown,coal,ST,,no,yes,249.0,,,,,0.33750000000000036,,Großkrotzenburg,220,TenneT TSO GmbH ,,50.088553000000005,8.953399000000001,
BNA0376,DE,E.ON Kraftwerke GmbH,Staudinger,63538,Großkrotzenburg,,Hessen,3,1970,1970.0,,2012.0,shutdown,coal,ST,,no,no,293.0,,,,,0.34999999999999964,,Großkrotzenburg,380,TenneT TSO GmbH ,,50.088553000000005,8.953399000000001,
BNA0377,DE,E.ON Kraftwerke GmbH,Staudinger,63538,Großkrotzenburg,,Hessen,5,1992,1992.0,,,operating,coal,ST,CHP,no,yes,510.0,553.0,300.0,List matching type: Single UBA power plant assigned to single BNetzA power plant,,0.40500000000000025,,Großkrotzenburg,380,TenneT TSO GmbH ,Staudinger 5 (Großkrotzenburg),50.088553000000005,8.953399000000001,
BNA0378,DE,E.ON Kraftwerke GmbH,Ingolstadt,85098,Großmehring,,Bayern,3,1973,1973.0,,,reserve,oil,ST,,no,yes,386.0,420.0,,List matching type: Single UBA power plant assigned to single BNetzA power plant,,0.35530000000000017,,Ingolstadt,220,TenneT TSO GmbH ,Ingolstadt 3 - Großmehring,48.761412,11.503001,
BNA0379,DE,E.ON Kraftwerke GmbH,Ingolstadt,85098,Großmehring,,Bayern,4,1974,1974.0,,,reserve,oil,ST,,no,yes,386.0,420.0,,List matching type: Single UBA power plant assigned to single BNetzA power plant,,0.35640000000000027,,Ingolstadt,220,TenneT TSO GmbH ,Ingolstadt 4 - Großmehring,48.761412,11.503001,
BNA0380,DE,EEW Energy from Waste Großräschen GmbH,EEW Großräschen,01983,Großräschen,,Brandenburg,,2008,2008.0,,,operating,waste,ST,,no,yes,23.3,,,,,0.33,,110 kV Schaltanlage,110,Mitteldeutsche Netzgesellschaft Strom mbH,,51.5929,14.0241,
BNA0381,DE,Kernkraftwerk Gundremmingen GmbH (KGG),Kernkraft Gundremmingen ,89355,Gundremmingen,,Bayern,B,1984,1984.0,,,operating,uranium,ST,,no,no,1284.0,1344.0,,List matching type: Single UBA power plant assigned to single BNetzA power plant,0.35,0.33,http://www.kkw-gundremmingen.de/kkw_z.php,Gundelfingen,380,Amprion GmbH,Gundremmingen B (KRB),48.51504,10.401564800000001,
BNA0382,DE,Kernkraftwerk Gundremmingen GmbH (KGG),Kernkraft Gundremmingen ,89355,Gundremmingen,,Bayern,C,1984,1984.0,,,operating,uranium,ST,,no,no,1288.0,1344.0,,List matching type: Single UBA power plant assigned to single BNetzA power plant,0.35,0.33,http://www.kkw-gundremmingen.de/kkw_z.php,Gundelfingen,380,Amprion GmbH,Gundremmingen C (KRB),48.51608,10.39822,
BNA0385,DE,Pfleiderer Gütersloh GmbH,KWK Gütersloh,33332,Gütersloh,Stadtring Nordhorn 61,Nordrhein-Westfalen,,2001,2001.0,,,operating,biomass,ST,,yes,yes,12.1,,,,,0.38,,Schaltanlage KWK,10,Netzgesellschaft Gütersloh mbH ,,51.91537,8.400310000000001,
BNA0386,DE,Mohn Media Mohndruck GmbH,Energiezentrum Mohn Media,33334,Gütersloh,Carl Bertelsmann Straße 161,Nordrhein-Westfalen,,1994,1994.0,,,operating,gas,ST,,no,yes,22.0,,,,,0.37840000000000007,,Carl Bertelsmann Straße 161 ,10,Netzgesellschaft Gütersloh mbH ,,51.907326,8.408835,
BNA0388,DE,Mark-E AG,Biomasse-Verstromungs-Anlage,58099,Hagen,,Nordrhein-Westfalen,BVA,2004,2004.0,,,operating,biomass,ST,,yes,yes,20.0,,,,,0.38,,U 101,110,Enervie AssetNetWork GmbH ,,51.411114000000005,7.4916979999999995,
BNA0389,DE,Mark-E AG,Heizkraftwerk Hagen-Kabel,58099,Hagen,,Nordrhein-Westfalen,H4/5,1980,1980.0,2004.0,,operating,gas,CC,,no,yes,230.0,251.0,108.0,List matching type: Single UBA power plant assigned to single BNetzA power plant,,0.557999999999998,,U 101 und U 102,110,Enervie AssetNetWork GmbH ,Hagen-Kabel GuD,51.41103,7.49171,
BNA0392a,DE,EVH GmbH,HKW Halle Trotha,06130,Halle,,Sachsen-Anhalt,Block A und B,2005,2005.0,,,operating,gas,ST,,no,yes,97.0,,,,,0.3905000000000003,,UW Halle Dieselstraße,110,Energieversorgung Halle Netz GmbH,,51.480959999999996,11.964269999999999,
BNA0392b,DE,Heizkraftwerk Halle-Trotha GmbH,HKW Halle Trotha,06130,Halle,,Sachsen-Anhalt,GuD,2013,2013.0,,,operating,gas,CC,,no,yes,54.0,,,,0.525,0.5984999999999978,"https://www.google.de/url?sa=t&rct=j&q=&esrc=s&source=web&cd=5&ved=0ahUKEwiJ8rrU2qbJAhUF_iwKHSr1ChwQFgg4MAQ&url=http%3A%2F%2Fwww.halle.eu%2Fpush.aspx%3Fs%3Ddownloads%2FNews%2F29628%2Fpi_3_technische_daten.pdf&usg=AFQjCNEeZwy7_KGWV3OQKSVdwycEK9rspg&sig2=hitqR6YF1CTtgFZjp5oT6Q&bvm=bv.108194040,d.bGg&cad=rja",UW Halle Nord,110,Mitteldeutsche Netzgesellschaft Strom mbH,,51.52353,11.94337,
BNA0395,DE,ThyssenKrupp Steel Europe AG,Duisburg Hamborn 3,47166,Hamborn,,Nordrhein-Westfalen,Block 3,1958,1958.0,,,operating,other_non_renewable,ST,,no,yes,60.0,,,,,,,Anschluss im Werksnetz,110,ThyssenKrupp Steel Europe AG,,51.49100000000001,6.7274899999999995,
BNA0396,DE,ThyssenKrupp Steel Europe AG,Duisburg Hamborn 4,47166,Hamborn,,Nordrhein-Westfalen,Block 4,1976,1976.0,,,operating,other_non_renewable,ST,CHP,no,yes,100.0,108.0,,List matching type: Single UBA power plant assigned to single BNetzA power plant,,,,Anschluss im Werksnetz,110,ThyssenKrupp Steel Europe AG,Duisburg-Hamborn 4,51.49100000000001,6.7274899999999995,
BNA0397,DE,ThyssenKrupp Steel Europe AG,Duisburg Hamborn 5,47166,Hamborn,,Nordrhein-Westfalen,Block 5,2003,2003.0,,,operating,other_non_renewable,CC,CHP,no,yes,225.0,240.7,150.0,List matching type: Single UBA power plant assigned to single BNetzA power plant,,,,Anschluss im Werksnetz,110,ThyssenKrupp Steel Europe AG,Duisburg-Hamborn 5,51.500603000000005,6.730319000000001,
BNA0398,DE,MVR Müllverwertung Rugenberger Damm GmbH & Co. KG,MVR Müllverwertung Rugenberger Damm GmbH & Co. KG,21129,Hamburg,Rugenberger Damm 1,Hamburg,,1999,1999.0,,,operating,waste,ST,,no,yes,24.0,,,,,0.33,,UW Neuhof,25,Stromnetz Hamburg GmbH,,53.52088514,9.934773445,
BNA0399,DE,MVB Müllverwertung Borsigstraße GmbH,Müllverwertung Borsigstraße MVB,22113,Hamburg,Borsigstraße 3,Hamburg,,2005,2005.0,,,operating,biomass,ST,,yes,yes,20.0,,,,,0.38,,Billbrook  KS 80121 und Horn  KS 80128 ,110,Stromnetz Hamburg GmbH,,53.53188044,10.07459164,
BNA0400,DE,Vattenfall Europe Wärme Aktiengesellschaft,GuD Tiefstack,22113,Hamburg,Andreas-Meyer-Straße 8,Hamburg,GuD Tiefstack,2009,2009.0,,,operating,gas,CC,CHP,no,yes,127.0,142.0,170.0,List matching type: Single UBA power plant assigned to single BNetzA power plant,,0.5804999999999989,,Tiefstack,110,Stromnetz Hamburg GmbH,Hamburg-Tiefstack GuD,53.52672755,10.06583691,
BNA0401,DE,ADM Hamburg Aktiengesellschaft,Heizkraftwerk,21107,Hamburg,Nippoldstr. 117,Hamburg,HKW,1992,1992.0,,,operating,gas,ST,,no,yes,22.5,,,,,0.3762000000000003,,Nr. 147190,25,Stromnetz Hamburg GmbH,,53.517683999999996,9.950792999999999,
BNA0402,DE,Vattenfall Europe Wärme Aktiengesellschaft,Tiefstack,22113,Hamburg,Andreas-Meyer-Straße 8,Hamburg,Tiefstack,1993,1993.0,,,operating,coal,ST,CHP,no,yes,194.0,205.0,785.0,List matching type: Single UBA power plant assigned to single BNetzA power plant,,0.40749999999999975,,Tiefstack,110,Stromnetz Hamburg GmbH,Hamburg-Tiefstack HKW,53.52616631,10.06317616,
BNA0403,DE,Vattenfall Europe Wärme AG,Wedel,22880,Wedel,Tinsdaler Weg 146,Schleswig-Holstein,Wedel 2,1962,1962.0,1987.0,,operating,coal,ST,CHP,no,yes,123.0,138.7,,List matching type: Single UBA power plant assigned to single BNetzA power plant,0.36,0.39250000000000007,http://www.abendblatt.de/hamburg/article108154203/Naturschuetzer-sorgen-fuer-hoehere-Umweltbelastung.html,Wedel,110,Stromnetz Hamburg GmbH,Wedel 2,53.56695702,9.724445343,
BNA0404,DE,Vattenfall Europe Wärme AG,Wedel,22880,Wedel,Tinsdaler Weg 146,Schleswig-Holstein,Wedel 1,1961,1961.0,1987.0,,operating,coal,ST,CHP,no,yes,137.0,151.0,423.0,List matching type: Single UBA power plant assigned to single BNetzA power plant,0.36,0.39250000000000007,http://www.abendblatt.de/hamburg/article108154203/Naturschuetzer-sorgen-fuer-hoehere-Umweltbelastung.html,Wedel,110,Stromnetz Hamburg GmbH,Wedel 1,53.56695702,9.724445343,
BNA0407,DE,Enertec Hameln GmbH,Enertec Hameln,31789,Hameln,,Niedersachsen,"Linien 1,3,4",1912,1912.0,,,operating,waste,ST,,no,yes,14.7,,,,,0.33,,UW Afferde,110,Westfalen Weser Netz GmbH,,52.09875,9.38821,
BNA0408,DE,Enertec Hameln GmbH,Enertec Hameln,31789,Hameln,,Niedersachsen,Block 7,2002,2002.0,,,operating,biomass,ST,,yes,no,16.8,,,,,0.38,,UW Afferde,30,Westfalen Weser Netz GmbH,,52.09875,9.38821,
BNA0410,DE,Trianel Gaskraftwerk Hamm GmbH & Co. KG ,Trianel Gaskraftwerk ,59071,Hamm,Trianelstraße 1,Nordrhein-Westfalen,Block 10,2008,2008.0,,,operating,gas,CC,,no,no,417.1,425.0,,List matching type: Single UBA power plant assigned to single BNetzA power plant,0.5770000000000001,0.5759999999999987,http://www.bwk-bund.de/fileadmin/Dokumente/Veranstaltungen/Kongresse/2011/FF-2-Schoepfer-Wasserkraft.pdf,SA Geithe,380,Amprion GmbH,Hamm-Uentrop 10,51.67395,7.92915,
BNA0411,DE,Trianel Gaskraftwerk Hamm GmbH & Co. KG ,Trianel Gaskraftwerk ,59071,Hamm,Trianelstraße 1,Nordrhein-Westfalen,Block 20,2008,2008.0,,,operating,gas,CC,,no,no,420.9,425.0,,List matching type: Single UBA power plant assigned to single BNetzA power plant,0.5770000000000001,0.5759999999999987,http://www.bwk-bund.de/fileadmin/Dokumente/Veranstaltungen/Kongresse/2011/FF-2-Schoepfer-Wasserkraft.pdf,SA Geithe,380,Amprion GmbH,Hamm-Uentrop 20,51.67395,7.92915,
BNA0413a,DE,RWE Generation SE,Westfalen,59071,Hamm-Uentrop,,Nordrhein-Westfalen,C,1969,1969.0,,,operating,coal,ST,,no,no,284.0,305.0,,List matching type: Single UBA power plant assigned to single BNetzA power plant,,0.34750000000000014,,Lippborg,110,Westnetz GmbH,Westfalen C (Hamm-Uentrop),51.680278,7.969722,
BNA0413b,DE,RWE Generation SE,Westfalen,59071,Hamm-Uentrop,,Nordrhein-Westfalen,D,2014,2014.0,,,special_case,coal,ST,,no,no,765.0,,,,0.46,0.45999999999999996,http://www.rwe.com/web/cms/de/1770974/rwe-generation-se/standorte/deutschland/kw-westfalen/,Uentrop,380,Amprion GmbH,,51.680278,7.969722,
BNA0413c,DE,RWE Generation SE,Westfalen,59071,Hamm-Uentrop,,Nordrhein-Westfalen,E,2014,2014.0,,,operating,coal,ST,,no,no,765.0,820.0,,List matching type: Single UBA power plant assigned to single BNetzA power plant,0.46,0.45999999999999996,http://www.rwe.com/web/cms/de/1770974/rwe-generation-se/standorte/deutschland/kw-westfalen/,Uentrop,380,Amprion GmbH,Westfalen E (Hamm-Uentrop),51.680278,7.969722,
BNA0414,DE,RWE Generation SE,Westfalen,59071,Hamm-Uentrop,,Nordrhein-Westfalen,A,1963,1963.0,,2011.0,shutdown,coal,ST,,no,no,152.0,,,,,0.3324999999999996,,Lippborg,110,Westnetz GmbH,,51.677820000000004,7.9742,
BNA0415,DE,RWE Generation SE,Westfalen,59071,Hamm-Uentrop,,Nordrhein-Westfalen,B,1963,1963.0,,2011.0,shutdown,coal,ST,,no,no,152.0,,,,,0.3324999999999996,,Lippborg,110,Westnetz GmbH,,51.677820000000004,7.9742,
BNA0417,DE,EEW Energy from Waste Hannover GmbH,EEW Energy from Waste Hannover GmbH,30659,Hannover,,Niedersachsen,Hannover,2005,2005.0,,,operating,waste,ST,,no,no,22.5,,,,,0.33,,"Umspannwerk Hannover, Leitung 121, Feld E17",110,Avacon AG,,52.41178,9.85297,
BNA0418,DE,Stadtwerke Hannover AG,GKL,30169,Hannover,,Niedersachsen,GKL,1998 / 2013,2013.0,2013.0,,operating,gas,CC,,no,yes,230.0,255.0,185.0,List matching type: Single UBA power plant assigned to single BNetzA power plant,0.55,0.5984999999999978,http://www.enercity.de/infothek/downloads/broschueren/anlagen/hkw-linden-langinfo.pdf,UW-Linden,110,enercity Netzgesellschaft mbH ,Hannover-Linden,52.372917,9.714194,
BNA0419,DE,Stadtwerke Hannover AG,KWH,30419,Hannover,,Niedersachsen,B,1975,1975.0,,,operating,gas,ST,CHP,no,yes,102.0,120.0,280.0,List matching type: Single UBA power plant assigned to single BNetzA power plant,0.38,0.3575000000000004,http://www.enercity.de/infothek/downloads/broschueren/anlagen/kraftwerk-herrenhausen.pdf,UW-Leinhausen,110,enercity Netzgesellschaft mbH ,Hannover-Herrenhausen,52.42,9.648611,
BNA0420,DE,Stadtwerke Hannover AG,GKH,30419,Hannover,,Niedersachsen,Block1,1989,1989.0,,,operating,coal,ST,CHP,no,yes,136.0,150.0,,List matching type: UBA capacity distributed proportionally to multiple BNetzA power plants,,0.39749999999999996,,UW-Stöcken,110,enercity Netzgesellschaft mbH ,Hannover-Stöcken,52.42,9.648611,
BNA0421,DE,Stadtwerke Hannover AG,GKH,30419,Hannover,,Niedersachsen,Block2,1989,1989.0,,,operating,coal,ST,CHP,no,yes,136.0,150.0,,List matching type: UBA capacity distributed proportionally to multiple BNetzA power plants,,0.39749999999999996,,UW-Stöcken,110,enercity Netzgesellschaft mbH ,Hannover-Stöcken,52.42,9.648611,
BNA0422,DE,E.ON Kraftwerke GmbH,Happurg,91230,Happurg,Haupstraße 26,Bayern,Happurg,1958,1958.0,,,special_case,pumped_storage,PSP,,no,no,160.0,162.1,,List matching type: Single UBA power plant assigned to single BNetzA power plant,,,,Schaltanlage vor Ort,110,Bayernwerk AG,Happurg 1 bis 4 / Pegnitz,49.487120000000004,11.474789999999999,
BNA0426,DE,Schluchseewerk Aktiengesellschaft,Häusern,79837,Häusern,Schwarzabruck 2,Baden-Württemberg,Häusern,1931,1931.0,1948.0,,operating,pumped_storage,PSP,,no,no,100.0,145.0,,List matching type: Single UBA power plant assigned to single BNetzA power plant,,,,Tiengen / Gurtweil,110,Amprion / Transnet BW,Häusern 1 bis 4,47.75459,8.18787,
BNA0427,DE,Peissenberger Kraftwerksgesellschaft mbH Kraftwerk Hausham,Kraftwerk Hausham,83734,Hausham,,Bayern,GT 1,1982,1982.0,,,operating,oil,GT,,no,no,23.2,26.750000000000004,,List matching type: UBA capacity distributed proportionally to multiple BNetzA power plants,,0.3331999999999997,,UW Hausham,110,Bayernwerk AG,Hausham GT 1 bis 4,47.752396000000005,11.839802,
BNA0428,DE,Peissenberger Kraftwerksgesellschaft mbH Kraftwerk Hausham,Kraftwerk Hausham,83734,Hausham,,Bayern,GT 2,1982,1982.0,,,operating,oil,GT,,no,no,23.2,26.750000000000004,,List matching type: UBA capacity distributed proportionally to multiple BNetzA power plants,,0.3331999999999997,,UW Hausham,110,Bayernwerk AG,Hausham GT 1 bis 4,47.752396000000005,11.839802,
BNA0429,DE,Peissenberger Kraftwerksgesellschaft mbH Kraftwerk Hausham,Kraftwerk Hausham,83734,Hausham,,Bayern,GT 3,1982,1982.0,,,operating,oil,GT,,no,no,23.2,26.750000000000004,,List matching type: UBA capacity distributed proportionally to multiple BNetzA power plants,,0.3331999999999997,,UW Hausham,110,Bayernwerk AG,Hausham GT 1 bis 4,47.752396000000005,11.839802,
BNA0430,DE,Peissenberger Kraftwerksgesellschaft mbH Kraftwerk Hausham,Kraftwerk Hausham,83734,Hausham,,Bayern,GT 4,1982,1982.0,,,operating,oil,GT,,no,no,23.2,26.750000000000004,,List matching type: UBA capacity distributed proportionally to multiple BNetzA power plants,,0.3331999999999997,,UW Hausham,110,Bayernwerk AG,Hausham GT 1 bis 4,47.752396000000005,11.839802,
BNA0432,DE,EnBW Energie Baden-Württemberg AG,Heizkraftwerk Heilbronn,74076,Heilbronn,Lichtenbergerstraße 23,Baden-Württemberg,HLB 5,1965,1965.0,2010.0,,reserve,coal,ST,,no,yes,125.0,125.0,28.0,List matching type: Single UBA power plant assigned to single BNetzA power plant,,0.4500000000000002,,Heilbronn,110,Netze BW GmbH,Heilbronn 5,49.177334,9.206318,
BNA0433,DE,EnBW Energie Baden-Württemberg AG,Heizkraftwerk Heilbronn,74076,Heilbronn,Lichtenbergerstraße 23,Baden-Württemberg,HLB 6,1966,1966.0,2010.0,,reserve,coal,ST,,no,yes,125.0,125.0,28.0,List matching type: Single UBA power plant assigned to single BNetzA power plant,,0.4500000000000002,,Heilbronn,110,Netze BW GmbH,Heilbronn 6,49.177334,9.206318,
BNA0434,DE,EnBW Energie Baden-Württemberg AG,Heizkraftwerk Heilbronn,74076,Heilbronn,Lichtenbergerstraße 23,Baden-Württemberg,HLB 7,1985,1985.0,2009.0,,operating,coal,ST,CHP,no,yes,778.0,816.0,550.0,List matching type: Single UBA power plant assigned to single BNetzA power plant,,0.4474999999999998,,Großgartach,380,Transnet BW GmbH,Heilbronn 7,49.177334,9.206318,
BNA0435,DE,,,16909,Heiligengrabe,,Brandenburg,,2002,2002.0,,,operating,biomass,ST,,yes,,19.7,,,,,0.38,,,HS,E.DIS AG,,53.15113,12.37706,
BNA0438,DE,EEW Energy from Waste Helmstedt GmbH,TRV Buschhaus,38350,Helmstedt,,Niedersachsen,Linie 1-3,1998,1998.0,,,operating,waste,ST,,no,no,37.5,,,,,0.33,,"Umspannwerk Helmstedt, Leitung 121, Feld E17",110,Avacon AG,,52.17138,10.97637,
BNA0439,DE,Helmstedter Revier GmbH,Buschhaus,38350,Helmstedt,,Niedersachsen,D,1985,1985.0,,,operating,lignite,ST,,no,no,352.0,405.0,,List matching type: Single UBA power plant assigned to single BNetzA power plant,0.36,0.363999999999999,http://stefanschroeter.com/669-mibrag-expandiert-ins-helmstedter-revier.html#.VkNVIiuriHs,Helmstedt,380,TenneT TSO GmbH ,Buschhaus (Helmstedt),52.17237156,10.97682873,
BNA0442,DE,Mark-E AG / Statkraft Markets GmbH,Cuno Heizkraftwerk Herdecke,58313,Herdecke,,Nordrhein-Westfalen,H6,2007,2007.0,,,special_case,gas,CC,,no,no,417.0,424.0,,List matching type: Single UBA power plant assigned to single BNetzA power plant,0.59,0.5714999999999986,http://www.mark-e.de/Home/Privatkunden/Mark-E/Erzeugung/Regionale-Erzeugung.aspx,U 106 und U 107,110,Enervie AssetNetWork GmbH ,Herdecke H3 (Cuno),51.40313,7.4155,
BNA0443,DE,RWE Power AG,Koepchenwerk,58313,Herdecke,,Nordrhein-Westfalen,Koepchenwerk,1989,1989.0,1989.0,,operating,pumped_storage,PSP,,no,no,153.0,153.0,,List matching type: Single UBA power plant assigned to single BNetzA power plant,0.75,,http://www.rwe.com/web/cms/de/2720904/g=2760602/rwe-generation-se/standorte/deutschland/psw-herdecke/,Garenfeld,220,Amprion GmbH,Koepchenwerk / Ruhr,51.41048,7.453139999999999,
BNA0444,DE,K+S AG,Wintershall,36266,Heringen,,Hessen,Wintershall,1967,1967.0,,,operating,gas,CC,IPP,no,yes,109.5,110.0,299.0,List matching type: Single UBA power plant assigned to single BNetzA power plant,,0.39149999999999885,,UW Phillippsthal,110,Avacon AG,Wintershall,50.894009999999994,9.99724,
BNA0447,DE,Steag GmbH,KW Herne,44653,Herne,Hertener Str. 16,Nordrhein-Westfalen,Herne 2,1963,1963.0,,2014.0,shutdown,coal,ST,,no,no,133.0,,,,,0.3324999999999996,,220 kV Schaltanlage Eiberg,220,Amprion GmbH,,51.550753,7.187481,
BNA0448,DE,E.ON Kraftwerke GmbH,Shamrock,44652,Herne,,Nordrhein-Westfalen,,1957,1957.0,,2013.0,shutdown,coal,ST,,no,yes,132.0,,,,,0.3174999999999999,,Gelsenkirchen,110,Amprion GmbH,,51.52849121,7.17779686,
BNA0449,DE,Steag GmbH,KW Herne,44654,Herne,Hertener Str. 16,Nordrhein-Westfalen,Herne 3,1966,1966.0,1989.0,,operating,coal,ST,CHP,no,yes,280.0,310.0,,List matching type: Single UBA power plant assigned to single BNetzA power plant,0.3,0.39749999999999996,http://www.rewag.de/fileadmin/news_archiv/pages/aktuell/newsdetail03ea.html?id=167/,220 kV Schaltanlage Eiberg,220,Amprion GmbH,Herne 3,51.550753,7.187481,
BNA0450,DE,Steag GmbH,KW Herne,44655,Herne,Hertener Str. 16,Nordrhein-Westfalen,Herne 4,1989,1989.0,2013.0,,operating,coal,ST,CHP,no,yes,449.0,500.0,550.0,List matching type: Single UBA power plant assigned to single BNetzA power plant,0.4,0.4574999999999996,http://www.gvst.de/dokumente/fachbeitraege/GVSt-Jahresveranstaltung%202010_4.pdf,220 kV Schaltanlage Bochum,220,Amprion GmbH,Herne 4,51.550753,7.187481,
BNA0464,DE,Stadtwerke Hannover AG,KWM,31249,Hohenhameln OT Mehrum,,Niedersachsen,Block3,1979,1979.0,2003.0,,operating,coal,ST,,no,no,690.0,750.0,,List matching type: Single UBA power plant assigned to single BNetzA power plant,,0.4325000000000001,,UW-Mehrum,220,TenneT TSO GmbH ,Mehrum 3 (C),52.3150224,10.09141738,
BNA0465,DE,Vattenfall Europe Generation AG,Hohenwarte 1,07338,Hohenwarte,Preßwitzer Str. 25,Thüringen,PSS A,1959,1959.0,,,operating,pumped_storage,PSP,,no,no,59.8,,,,,,,Remptendorf,110,"TEN Thüringer 
Energienetze GmbH",,50.61433423,11.49212837,
BNA0466,DE,Vattenfall Europe Generation AG,Hohenwarte 1,07338,Hohenwarte,Preßwitzer Str. 25,Thüringen,PSS B,1959,1959.0,,,operating,pumped_storage,PSP,,no,no,,,,,,,,Remptendorf,110,"TEN Thüringer 
Energienetze GmbH",,50.61433423,11.49212837,
BNA0467,DE,Vattenfall Europe Generation AG,Hohenwarte 2,07338,Hohenwarte,Preßwitzer Str. 25,Thüringen,PSS A,1966,1966.0,,,operating,pumped_storage,PSP,,no,no,317.8,320.0,,List matching type: UBA capacity distributed proportionally to multiple BNetzA power plants,,,,Remptendorf,220,50 Hertz Transmission GmbH,Hohenwarte II  A bis H,50.60384898,11.47517681,
BNA0468,DE,Vattenfall Europe Generation AG,Hohenwarte 2,07338,Hohenwarte,Preßwitzer Str. 25,Thüringen,PSS B,1966,1966.0,,,operating,pumped_storage,PSP,,no,no,,,,List matching type: UBA capacity distributed proportionally to multiple BNetzA power plants,,,,Remptendorf,220,50 Hertz Transmission GmbH,Hohenwarte II  A bis H,50.60384898,11.47517681,
BNA0469,DE,Vattenfall Europe Generation AG,Hohenwarte 2,07338,Hohenwarte,Preßwitzer Str. 25,Thüringen,PSS C,1966,1966.0,,,operating,pumped_storage,PSP,,no,no,,,,List matching type: UBA capacity distributed proportionally to multiple BNetzA power plants,,,,Remptendorf,220,50 Hertz Transmission GmbH,Hohenwarte II  A bis H,50.60384898,11.47517681,
BNA0470,DE,Vattenfall Europe Generation AG,Hohenwarte 2,07338,Hohenwarte,Preßwitzer Str. 25,Thüringen,PSS D,1966,1966.0,,,operating,pumped_storage,PSP,,no,no,,,,List matching type: UBA capacity distributed proportionally to multiple BNetzA power plants,,,,Remptendorf,220,50 Hertz Transmission GmbH,Hohenwarte II  A bis H,50.60384898,11.47517681,
BNA0471,DE,Vattenfall Europe Generation AG,Hohenwarte 2,07338,Hohenwarte,Preßwitzer Str. 25,Thüringen,PSS E,1966,1966.0,,,operating,pumped_storage,PSP,,no,no,,,,List matching type: UBA capacity distributed proportionally to multiple BNetzA power plants,,,,Remptendorf,220,50 Hertz Transmission GmbH,Hohenwarte II  A bis H,50.60384898,11.47517681,
BNA0472,DE,Vattenfall Europe Generation AG,Hohenwarte 2,07338,Hohenwarte,Preßwitzer Str. 25,Thüringen,PSS F,1966,1966.0,,,operating,pumped_storage,PSP,,no,no,,,,List matching type: UBA capacity distributed proportionally to multiple BNetzA power plants,,,,Remptendorf,220,50 Hertz Transmission GmbH,Hohenwarte II  A bis H,50.60384898,11.47517681,
BNA0473,DE,Vattenfall Europe Generation AG,Hohenwarte 2,07338,Hohenwarte,Preßwitzer Str. 25,Thüringen,PSS G,1966,1966.0,,,operating,pumped_storage,PSP,,no,no,,,,List matching type: UBA capacity distributed proportionally to multiple BNetzA power plants,,,,Remptendorf,220,50 Hertz Transmission GmbH,Hohenwarte II  A bis H,50.60384898,11.47517681,
BNA0474,DE,Vattenfall Europe Generation AG,Hohenwarte 2,07338,Hohenwarte,Preßwitzer Str. 25,Thüringen,PSS H,1966,1966.0,,,operating,pumped_storage,PSP,,no,no,,,,List matching type: UBA capacity distributed proportionally to multiple BNetzA power plants,,,,Remptendorf,220,50 Hertz Transmission GmbH,Hohenwarte II  A bis H,50.60384898,11.47517681,
BNA0483,DE,GHP Glunz  Holzwerkstoffproduktion GmbH,,32805,Horn-Bad Meinberg,,Nordrhein-Westfalen,,2000,2000.0,,,operating,biomass,ST,,yes,,19.9,,,,,0.38,,,HS/MS,Westfalen Weser Netz GmbH,,51.88476,8.9567,
BNA0485,DE,Hüttenwerke Krupp Mannesmann GmbH,Huckingen,47259,Duisburg-Huckingen,,Nordrhein-Westfalen,A,1975,1975.0,2009.0,,operating,other_non_renewable,CC,,no,yes,303.0,320.0,34.0,List matching type: Single UBA power plant assigned to single BNetzA power plant,,,,Mündelheim,220,Amprion GmbH,Huckingen A,51.36787,6.7167,
BNA0486,DE,Hüttenwerke Krupp Mannesmann GmbH,Huckingen,47259,Duisburg-Huckingen,,Nordrhein-Westfalen,B,1976,1976.0,2011.0,,operating,other_non_renewable,CC,,no,yes,303.0,320.0,34.0,List matching type: Single UBA power plant assigned to single BNetzA power plant,,,,Mündelheim,220,Amprion GmbH,Huckingen B,51.36787,6.7167,
BNA0489,DE,RWE Power AG,Goldenberg,50354,Hürth,,Nordrhein-Westfalen,E,1992,1992.0,,2015.0,shutdown,lignite,ST,,no,yes,66.0,,,,,0.3807999999999989,,Knapsack,110,Westnetz GmbH,,50.8608,6.8402,
BNA0490a,DE,RWE Power AG,Goldenberg,50354,Hürth,,Nordrhein-Westfalen,F,1993,1993.0,,,special_case,lignite,ST,,no,yes,40.0,,,,,0.38319999999999954,,Knapsack,110,Westnetz GmbH,,50.8608,6.8402,
BNA0490b,DE,RWE Power AG,Goldenberg,50354,Hürth,,Nordrhein-Westfalen,F,1993,1993.0,,2015.0,shutdown,lignite,ST,,no,yes,45.0,,,,,0.38319999999999954,,Knapsack,110,Westnetz GmbH,,50.8608,6.8402,
BNA0491,DE,RWE Power AG,Ville/Berrenrath,50354,Hürth,,Nordrhein-Westfalen,Ville/Berrenrath,1991,1991.0,,,operating,lignite,ST,,no,yes,52.0,107.0,,List matching type: Single UBA power plant assigned to single BNetzA power plant,,0.3783999999999992,,Berrenrath,110,Westnetz GmbH,Ville / Berrenrath (Hürth),50.86138,6.840660000000001,
BNA0492,DE,RAG Anthrazit Ibbenbüren GmbH,RAG Anthrazit Ibbenbüren GmbH,49477,Ibbenbüren,,Nordrhein-Westfalen,EVA,1985,1985.0,,,operating,gas_mine,ST,,yes,yes,33.4,,,,,,,110kV-Anlage Bergwerk,110,Westnetz GmbH,,52.28588,7.74613,
BNA0493,DE,RWE Generation SE,Ibbenbüren,49479,Ibbenbüren,,Nordrhein-Westfalen,B,1985,1985.0,2009.0,,operating,coal,ST,,no,yes,794.0,838.0,20.0,List matching type: Single UBA power plant assigned to single BNetzA power plant,,0.4474999999999998,,Westerkappeln,380,Amprion GmbH,Ibbenbüren,52.28881179,7.747906179,
BNA0494,DE,EnBW Energie Baden-Württemberg AG,Rheinkraftwerk Iffezheim,76473,Iffezheim,An der Staustufe 27,Baden-Württemberg,Iffezheim M1-M5,1978 / 2013,2013.0,,,operating,run_of_river,ROR,,no,no,146.0,152.0,,List matching type: Single UBA power plant assigned to single BNetzA power plant,,,,Iffezheim,110,Netze BW GmbH,Iffezheim 1-5 / Rhein,48.83135,8.112160000000001,
BNA0496,AT,TIWAG-Tiroler Wasserkraft AG,KW Imst,A-6491,Imsterberg,,Österreich,Imsterberg,1956,1956.0,,,operating,run_of_river,ROR,,no,no,89.0,,,,,,,UW Imst,110,TIWAG-Netz AG/APG bzw. Tennet,,47.212246,10.721519,
BNA0497,DE,Infraserv GmbH & Co. Höchst KG,ADS-Anlage,65926,Industriepark Höchst,,Hessen,,2012,2012.0,,,operating,gas,GT,,no,yes,96.5,105.7,126.0,List matching type: Single UBA power plant assigned to single BNetzA power plant,,0.4111999999999991,,FWH O/W,110,Infraserv GmbH & Co. Höchst KG,Frankfurt-Hoechst C,50.09178,8.53105,
BNA0498,DE,Infraserv GmbH & Co. Höchst KG,Heizkraftwerk,A-65926,Industriepark Höchst,,Hessen,Block B,1989,1989.0,,,operating,coal,CC,CHP,no,yes,66.0,70.42894736842105,,List matching type: UBA capacity distributed proportionally to multiple BNetzA power plants,,,,FWH O/W,10,Infraserv GmbH & Co. Höchst KG,Frankfurt-Hoechst A u. B,50.09178,8.53105,
BNA0499,DE,Infraserv GmbH & Co. Höchst KG,Heizkraftwerk,65926,Industriepark Höchst,,Hessen,Block A,2003,2003.0,,,operating,gas,CC,CHP,no,yes,86.0,91.77105263157894,,List matching type: UBA capacity distributed proportionally to multiple BNetzA power plants,,0.5534999999999979,,FWH O/W,,Infraserv GmbH & Co. Höchst KG,Frankfurt-Hoechst A u. B,50.09178,8.53105,
BNA0500,DE,Boehringer Ingelheim Pharma GmbH & Co. KG,,55218,Ingelheim,,Rheinland-Pfalz,,2004,2004.0,,,operating,biomass,ST,,yes,,12.4,,,,,0.38,,,HS/MS,Rheinhessische Energie- und Wasserversorgungs-GmbH,,49.974392,8.044595,
BNA0504,DE,Thüringer Energie AG,HKW Jena,07749,Jena,,Thüringen,HKW Jena,1996,1996.0,,,operating,gas,CC,CHP,no,yes,182.0,203.97,225.0,List matching type: Single UBA power plant assigned to single BNetzA power plant,,0.5219999999999985,,UW HKW Jena,110,TEN Thüringer Energienetze GmbH,Jena-Süd,50.896881,11.585703,
BNA0505,AT,TIWAG-Tiroler Wasserkraft AG,KW Jenbach,A-6200,Jenbach,,Österreich,Jenbach,1926,1926.0,,,operating,reservoir,RES,,no,no,79.0,,,,,,,UW Jenbach,110,TIWAG-Netz AG/APG bzw. Tennet,,47.393249,11.788647000000001,
BNA0510a,DE,SWK - Stadtwerke Kaiserslautern,HKW Karcherstr.,67655,Kaiserslautern,,Rheinland-Pfalz,10,1989,1989.0,,,operating,gas,ST,,no,yes,11.6,,,,,0.3729,,UW 1,20,SWK Stadtwerke Kaiserslautern Versorgungs-AG,,49.434659,7.760234,
BNA0510b,DE,SWK - Stadtwerke Kaiserslautern,HKW Karcherstr.,67655,Kaiserslautern,,Rheinland-Pfalz,20,1996,1996.0,,,operating,coal,ST,,no,yes,13.4,,,,,0.41500000000000004,,UW1,20,SWK Stadtwerke Kaiserslautern Versorgungs-AG,,49.43461,7.75824,
BNA0514,DE,EnBW Energie Baden-Württemberg AG,Rheinhafen-Dampfkraftwerk,76189,Karlsruhe,Fettweisstraße 42,Baden-Württemberg,RDK 4S,1998,1998.0,,,operating,gas,CC,,no,no,353.0,363.0,,List matching type: Single UBA power plant assigned to single BNetzA power plant,0.57,0.5309999999999988,https://www.enbw.com/unternehmen/konzern/energieerzeugung/fossile-energie/standorte.html,Daxlanden,220,Transnet BW GmbH,Karlsruhe-RDK 4s,49.0125,8.302778,
BNA0515,DE,Stadtwerke Karlsruhe GmbH,Heizkraftwerk West,76189,Karlsruhe,,Baden-Württemberg,T3,1984,1984.0,,,operating,gas,ST,,no,yes,37.0,,,,,0.3674000000000004,,,110,Stadtwerke Karlsruhe Netzservice GmbH,,49.014444,8.348056,
BNA0516,DE,Mineraloelraffinerie Oberrhein GmbH & Co. KG,MiRO,76187,Karlsruhe,,Baden-Württemberg,Kesselhaus Werk 1,1995,1995.0,,,operating,oil,ST,,no,yes,45.0,,,,,0.37950000000000017,,,110,Netze BW GmbH,,49.06081,8.32439,
BNA0517,DE,Mineraloelraffinerie Oberrhein GmbH & Co. KG,MiRO,76187,Karlsruhe,,Baden-Württemberg,Kesselhaus Werk 2,1995,1995.0,,,operating,oil,ST,,no,yes,25.0,,,,,0.37950000000000017,,,110,Netze BW GmbH,,49.06081,8.32439,
BNA0518a,DE,EnBW Energie Baden-Württemberg AG,Rheinhafen-Dampfkraftwerk,76189,Karlsruhe,Fettweisstraße 42,Baden-Württemberg,RDK 7,1985,1985.0,2005.0,,operating,coal,ST,CHP,no,yes,505.0,550.0,220.0,List matching type: Single UBA power plant assigned to single BNetzA power plant,,0.4375,,Daxlanden,380,Transnet BW GmbH,Karlsruhe-RDK 7,49.0125,8.302778,
BNA0518b,DE,EnBW Energie Baden-Württemberg AG,Rheinhafen-Dampfkraftwerk,76189,Karlsruhe,Fettweisstraße 42,Baden-Württemberg,RDK 8,2014,2014.0,,,operating,coal,ST,,no,yes,842.0,912.0,220.0,List matching type: Single UBA power plant assigned to single BNetzA power plant,0.46,0.45999999999999996,https://www.enbw.com/unternehmen/konzern/energieerzeugung/fossile-energie/standorte.html,Daxlanden,380,Transnet BW GmbH,Karlsruhe-RDK 8,49.0125,8.302778,
BNA0519,DE,RWE Generation SE,Karnap,45329,Essen,,Nordrhein-Westfalen,B,1987,1987.0,,,operating,waste,ST,,no,yes,38.0,,,,,0.33,,Karnap,110,Westnetz GmbH,,51.51543,6.9938199999999995,
BNA0520,DE,Stora Enso Maxau GmbH,Stora Enso Maxau,76187,Karlsruhe,,Baden-Württemberg,,2010,2010.0,,,operating,biomass,ST,,no,yes,78.0,,,,,0.38,,DE00032776187ES000125501100010000,110,Stadtwerke Karlsruhe Netzservice GmbH,,49.0393,8.31134,
BNA0521,DE,Städtische Werke Energie + Wärme GmbH,Kombi-HKW,34134,Kassel,,Hessen,,1987,1987.0,,,operating,gas,ST,,no,yes,50.0,,,,,0.37070000000000025,,DE0003323413400000000009959305051,60,Städtische Werke Netz + Service GmbH,,51.279099,9.484012,
BNA0523,DE,Städtische Werke Energie + Wärme GmbH,FKK,34134,Kassel,,Hessen,,1988,1988.0,,,operating,lignite,ST,,no,yes,33.5,,,,,0.3711999999999991,,DE00033234134000KFWFKK10000199995,110,Avacon AG,,51.279099,9.484012,
BNA0526,DE,Gemeinschaftskraftwerk Kiel GmbH,Gemeinschaftskraftwerk Kiel,24149,Kiel,,Schleswig-Holstein,,1970,1970.0,1992.0,,operating,coal,ST,CHP,no,yes,323.0,354.0,295.0,List matching type: Single UBA power plant assigned to single BNetzA power plant,0.39,0.40500000000000025,http://www.bund.net/fileadmin/bundnet/publikationen/energie/20070628_energie_stilllegungsluege_kohlekraftwerke_klimafakten.pdf,Umspannwerk Hasselfelde,220,TenneT TSO GmbH ,Kiel-Ost (GKK),54.33945,10.1766,
BNA0527,DE,Stadtwerke Kiel AG,HKW Humboldtstr.,24116,Kiel,,Schleswig-Holstein,,1970/2014,2014.0,,,operating,gas,ST,,no,yes,31.0,,,,,0.4004000000000003,,Umspannwerk Humboldtstr.,30,Stadtwerke Kiel Netz GmbH ,,54.327536,10.12674,
BNA0529,DE,Innwerk AG,Braunau-Simbach,84375,Kirchdorf,Ach 6,Bayern,Braunau-Simbach,1953,1953.0,,,operating,run_of_river,ROR,,no,no,50.0,101.3,,List matching type: Single UBA power plant assigned to single BNetzA power plant,,,,Schaltanlage vor Ort,110,APG/Bayernwerk AG,Braunau-Simbach / Inn,48.063827,10.128442999999999,
BNA0531,DE,Energieservice Westfalen Weser GmbH,KW Kirchlengern,32278,Kirchlengern,,Nordrhein-Westfalen,,1980,1980.0,,,operating,gas,CC,,no,no,201.5,184.5,,List matching type: Single UBA power plant assigned to single BNetzA power plant,,0.4499999999999993,,UW Kirchlengern,110,E.ON Westfalen Weser Netz GmbH,Kirchlengern 1,52.19507,8.6482,
BNA0540,DE,E.ON Kraftwerke GmbH,Walchensee,82431,Kochel am See,Altjoch 21,Bayern,Walchensee,1924,1924.0,1955.0,,operating,reservoir,SPP,,no,no,124.0,125.6,,List matching type: Single UBA power plant assigned to single BNetzA power plant,,,,Schaltanlage vor Ort,110,Bayernwerk AG / DB Energie GmbH,Walchensee / Isar,47.631353999999995,11.337054,
BNA0543,DE,RheinEnergie AG,HKW Merkenich,50769,Köln,,Nordrhein-Westfalen,Block 6,2010,2010.0,,,operating,lignite,ST,,no,yes,75.3,85.41740088105726,,List matching type: UBA capacity distributed proportionally to multiple BNetzA power plants,,0.4239999999999995,,UW Merkenich,110,Rheinische NETZ Gesellschaft mbH ,Köln-Merkenich 4+6,51.01781,6.96435,
BNA0544,DE,RheinEnergie AG,HKW Südstadt,50677,Köln,,Nordrhein-Westfalen,GuD,1994,1994.0,,,operating,gas,CC,,no,yes,35.0,,,,,0.5129999999999981,,UW Bonner Wall,110,Rheinische NETZ Gesellschaft mbH ,,50.91697,6.95725,
BNA0545,DE,RheinEnergie AG,HKW Niehl 2,50735,Köln,,Nordrhein-Westfalen,GuD,2005,2005.0,2008.0,,operating,gas,CC,,no,yes,413.0,421.0,370.0,List matching type: Single UBA power plant assigned to single BNetzA power plant,0.58,0.5759999999999987,http://www.rheinenergie.com/media/portale/downloads_4/rheinenergie_1/flyer/Heizkraftwerk-Niehl-II.pdf,UW Mole,110,Rheinische NETZ Gesellschaft mbH ,Köln-Niehl II,50.974920000000004,6.98803,
BNA0546,DE,RheinEnergie AG,HKW Merkenich,50769,Köln,,Nordrhein-Westfalen,GuD,2004,2004.0,,,operating,gas,CC,,no,yes,108.0,110.0,80.0,List matching type: Single UBA power plant assigned to single BNetzA power plant,0.53,0.557999999999998,http://www.rheinenergie.com/media/portale/downloads_4/rheinenergie_1/broschueren_1/Vereinfachte_Umwelterklaerung_der_Standorte_Koeln-Merkenich_und_Koeln-Niehl_2011.pdf,UW Merkenich,110,Rheinische NETZ Gesellschaft mbH ,Köln-Merkenich GuD,51.01781,6.96435,
